address,bathrooms,bedrooms,finishedsqft,lastsolddate,lastsoldprice,latitude,longitude,neighborhood,totalrooms,usecode,yearbuilt,zipcode
Address: 1160 Mission Street #2007,2,2,1043,2/17/2016,1300000,37.778705,-122.412635,South of Market,4,Condominium,2007,94103
Address: 260 King Street #475,1,1,903,2/17/2016,750000,37.777641,-122.393417,South of Market,3,Condominium,2004,94107
Address: 560 Missouri Street #B,4,3,1425,2/17/2016,1495000,37.759198,-122.396516,Potrero Hill,6,Condominium,2003,94107
Address: 350 Missouri Street,3,3,2231,2/17/2016,2700000,37.761886,-122.396769,Potrero Hill,10,SingleFamily,1927,94107
Address: 3658 Folsom Street,3,3,1300,2/17/2016,1530000,37.740795,-122.413453,Bernal Heights,4,SingleFamily,1900,94110
Address: 156 Lowell Street,1,2,1250,2/17/2016,460000,37.710226,-122.446027,Crocker Amazon,5,SingleFamily,1924,94112
Address: 735 Lakeview Avenue,1,3,1032,2/17/2016,532000,37.718024,-122.460332,Oceanview,6,SingleFamily,1939,94112
Address: 430 Capistrano Avenue,1,2,1200,2/17/2016,1050000,37.725204,-122.439273,Mission Terrace,5,SingleFamily,1924,94112
Address: 4135 23rd Street,3.5,4,2700,2/17/2016,3500000,37.752602,-122.435011,Noe Valley,9,SingleFamily,1912,94114
Address: 440 Steiner Street,2,3,2016,2/17/2016,1500000,37.773237,-122.432302,Hayes Valley,7,Condominium,1890,94117
Address: 414 Somerset Street,1,3,1798,2/17/2016,848000,37.726252,-122.407649,Portola,8,SingleFamily,1953,94134
Address: 300 Berry Street #813,1,1,761,2/17/2016,1000000,37.773929,-122.39624,South of Market,4,Condominium,2008,94158
Address: 370 Church Street #F,1,1,780,8/12/2015,863000,37.765062,-122.429077,Eureka Valley - Dolores Heights - Castro,4,Condominium,1981,94114
Address: 10 22nd Avenue,5,5,5786,2/16/2016,4888000,37.787088,-122.481741,Lake,12,SingleFamily,1926,94121
Address: 1847 10th Avenue,2,2,1688,2/16/2016,1000000,37.753756,-122.466995,Inner Sunset,6,SingleFamily,1927,94122
Address: 442 Mangels Avenue,3,4,1619,2/16/2016,210000,37.733307,-122.447605,Sunnyside,7,SingleFamily,1966,94127
Address: 650 Turk Street #706,1,0,398,2/12/2016,525000,37.782379,-122.420166,Van Ness - Civic Center,4,Condominium,2008,94102
Address: 66 Rondel Place,4.5,4,2615,2/12/2016,2300000,37.763849,-122.421259,Mission,9,SingleFamily,1906,94103
Address: 1610 Sacramento Street #5,2,2,1252,2/12/2016,1450000,37.791904,-122.419806,Nob Hill,4,Condominium,2002,94109
Address: 1536 Pacific Avenue #1,2,3,1444,2/12/2016,2500000,37.795383,-122.420623,Nob Hill,6,Condominium,2009,94109
Address: 541 Prentiss Street,2,3,1200,2/12/2016,171000,37.73639,-122.412103,Bernal Heights,5,SingleFamily,1953,94110
Address: 31 Hartford Street,1,2,1265,2/12/2016,871500,37.76207,-122.43369,Eureka Valley - Dolores Heights - Castro,5,Condominium,1902,94114
Address: 1600 Webster Street #106,1,1,859,2/12/2016,900000,37.78568,-122.430955,Lower Pacific Heights,4,Condominium,2005,94115
Address: 233 18th Avenue,1,2,1308,2/12/2016,1020000,37.783586,-122.477794,Central Richmond,5,Condominium,1914,94121
Address: 248 17th Avenue,1.5,2,1429,2/12/2016,1410500,37.783401,-122.476049,Central Richmond,6,Condominium,1922,94121
Address: 1374 45th Avenue,1,3,1771,2/12/2016,951000,37.761002,-122.504565,Outer Sunset,8,SingleFamily,1905,94122
Address: 1087 Palou Avenue,2,3,1452,2/12/2016,430000,37.728354,-122.381454,Bayview,8,SingleFamily,1900,94124
Address: 1486 Underwood Avenue,2,3,1115,2/12/2016,680000,37.728777,-122.389531,Bayview,6,SingleFamily,1931,94124
Address: 350 Lansdale Avenue,3,3,2378,2/12/2016,1440000,37.735851,-122.458653,Westwood Highlands,8,SingleFamily,1940,94127
Address: 120 Ulloa Street,2.5,2,2063,2/12/2016,1700000,37.744348,-122.455305,Forest Hill Extension,10,SingleFamily,1937,94127
Address: 159 Middlefield Drive,3,3,2200,2/12/2016,234000,37.731436,-122.486486,Lakeshore,6,SingleFamily,1950,94132
Address: 8 Dunsmuir Street,1,2,1250,2/12/2016,700000,37.730809,-122.414514,Portola,5,SingleFamily,1936,94134
Address: 22 West View Avenue,1,2,970,2/12/2016,744000,37.730916,-122.418729,Portola,5,SingleFamily,1943,94134
Address: 4160 17th Street,2,2,911,2/11/2016,1100000,37.762498,-122.438686,Corona Heights,4,Condominium,1904,94114
Address: 1315 21st Avenue,1.25,2,1621,2/11/2016,1325000,37.763108,-122.479527,Central Sunset,6,SingleFamily,1911,94122
Address: 4229 26th Street,3,3,2048,2/11/2016,2525000,37.747788,-122.434812,Noe Valley,7,SingleFamily,1900,94131
Address: 361 Texas Street,2,3,2080,2/10/2016,2300000,37.761845,-122.395171,Potrero Hill,7,SingleFamily,1906,94107
Address: 667 Shotwell Street #A,1,1,1212,2/10/2016,775000,37.757851,-122.415629,Mission,4,Condominium,1890,94110
Address: 2919 Pacific Avenue #6,2,2,1125,2/10/2016,1457000,37.79197,-122.44344,Pacific Heights,4,Condominium,1905,94115
Address: 2455 14th Avenue,3.75,4,1846,2/10/2016,1525000,37.742271,-122.470518,West Portal,5,SingleFamily,1932,94116
Address: 30 Beaumont Avenue,1,3,1164,2/10/2016,550000,37.780933,-122.454866,Lone Mountain,6,SingleFamily,1922,94118
Address: 108 16th Avenue,5,7,4808,2/10/2016,3800000,37.785945,-122.475319,Lake,15,MultiFamily2To4,1914,94118
Address: 766 30th Avenue,4,4,2520,2/10/2016,1900000,37.774837,-122.489397,Central Richmond,8,SingleFamily,1927,94121
Address: 601 Van Ness Avenue #629,1,1,706,2/9/2016,620000,37.781386,-122.421406,Van Ness - Civic Center,3,Condominium,1982,94102
Address: 260 King Street #815,1,1,903,2/9/2016,800000,37.777641,-122.393417,South of Market,3,Condominium,2004,94107
Address: 2040 Fell Street #12,1,2,1593,2/9/2016,872500,37.772597,-122.451587,North Panhandle,4,Condominium,1925,94117
Address: 784 Spruce Street,3,8,2600,2/9/2016,1535000,37.780606,-122.452663,Lone Mountain,10,MultiFamily2To4,1927,94118
Address: 1444 17th Avenue #101,3,3,1902,2/9/2016,1600000,37.760979,-122.474469,Inner Sunset,6,Condominium,1996,94122
Address: 1618 12th Avenue,3,4,2900,2/9/2016,1625000,37.757906,-122.468775,Inner Sunset,8,Condominium,2001,94122
Address: 5696 Diamond Heights Boulevard,3.5,3,2435,2/9/2016,2050000,37.738831,-122.439262,Diamond Heights,7,SingleFamily,1980,94131
Address: 901 Post Street #2,2,3,1207,2/8/2016,885000,37.787089,-122.416761,Downtown,9,Condominium,2002,94109
Address: 66 Cleary Court #1504,2,3,1106,2/8/2016,960000,37.784298,-122.427058,Western Addition,6,Condominium,1963,94109
Address: 1800 Bryant Street #202,2,1,935,2/8/2016,825000,37.764088,-122.410828,Mission,3,Condominium,2000,94110
Address: 3919 17th Street,1,2,968,2/8/2016,1065000,37.76241,-122.433456,Eureka Valley - Dolores Heights - Castro,4,MultiFamily2To4,1910,94114
Address: 325 Locust Street,2,3,1950,2/8/2016,1925000,37.787916,-122.452338,Presidio Heights,7,Condominium,1905,94118
Address: 50 Longview Court,2,4,1703,2/8/2016,1250000,37.748415,-122.450795,Midtown Terrace,8,SingleFamily,1955,94131
Address: 2243 Franklin Street,2,2,1463,2/5/2016,1950000,37.795139,-122.425309,Pacific Heights,7,Condominium,1900,94109
Address: 576 Brunswick Street,1,2,1200,2/5/2016,609000,37.710208,-122.445075,Crocker Amazon,5,SingleFamily,1931,94112
Address: 79 Seward Street,2,3,2650,2/5/2016,2350000,37.758626,-122.440801,Eureka Valley - Dolores Heights - Castro,8,SingleFamily,1929,94114
Address: 2105 Buchanan Street #6,2,3,1700,2/5/2016,1770000,37.789597,-122.430787,Pacific Heights,5,Condominium,1921,94115
Address: 2017 Buchanan Street,4,4,2850,2/5/2016,2800000,37.788913,-122.430728,Lower Pacific Heights,7,Condominium,1890,94115
Address: 1015 Ashbury Street #2,2,2,1252,2/5/2016,1350000,37.76432,-122.446342,Parnassus - Ashbury,4,Condominium,1913,94117
Address: 170 Bridgeview Drive,2,3,1297,2/5/2016,725000,37.735503,-122.397062,Silver Terrace,6,SingleFamily,1964,94124
Address: 884 Ingerson Avenue,3,5,1789,2/5/2016,850000,37.71805,-122.390617,Bayview,8,SingleFamily,1964,94124
Address: 475 Princeton Street,1,2,1254,2/5/2016,860000,37.72396,-122.413872,Portola,5,SingleFamily,1949,94134
Address: 333 1st Street #1702,1,1,713,2/4/2016,885000,37.787031,-122.393642,South Beach,3,Condominium,2004,94105
Address: 861 Rhode Island Street #A,2.5,4,2166,6/11/2015,1600000,37.757681,-122.401578,Potrero Hill,11,MultiFamily2To4,1908,94107
Address: 415 Amherst Street,1,2,1000,2/4/2016,760000,37.724352,-122.415124,Portola,4,SingleFamily,1949,94134
Address: 201 Holly Park Circle,2,3,2250,2/3/2016,227500,37.737764,-122.418634,Bernal Heights,8,SingleFamily,1910,94110
Address: 30 Otsego Avenue,2,3,1806,2/3/2016,1300000,37.726945,-122.439334,Mission Terrace,7,SingleFamily,1924,94112
Address: 80 Venus Street,1.5,3,1200,2/3/2016,810000,37.731771,-122.397584,Silver Terrace,5,SingleFamily,1941,94124
Address: 1816 Castro Street,1,2,884,2/3/2016,850000,37.747035,-122.433868,Noe Valley,5,Condominium,1918,94131
Address: 149 Laidley Street,2,3,2100,2/3/2016,1950000,37.739623,-122.428899,Glen Park,10,SingleFamily,1900,94131
Address: 737 Tehama Street #1,2,2,977,2/2/2016,1030000,37.775184,-122.411567,South of Market,5,Condominium,2006,94103
Address: 319 De Long Street,1,2,875,2/2/2016,565000,37.709411,-122.465031,Outer Mission,4,SingleFamily,1950,94112
Address: 1655 48th Avenue,1,2,697,2/2/2016,762000,37.755586,-122.508063,Outer Sunset,4,SingleFamily,1904,94122
Address: 4219 Folsom Street,2,3,1539,2/1/2016,950000,37.734334,-122.413534,Bernal Heights,7,SingleFamily,1976,94110
Address: 403 Main Street #518N,2,2,1118,1/29/2016,1415000,37.788008,-122.389643,South Beach,5,Condominium,1997,94105
Address: 188 Minna Street #38C,2.5,2,1670,1/29/2016,7500000,37.786289,-122.401374,Yerba Buena,5,Condominium,2005,94105
Address: 1200 Gough Street #22B,1,0,550,1/29/2016,650000,37.78482,-122.423994,Van Ness - Civic Center,2,Condominium,1966,94109
Address: 979 Guerrero Street,2,3,1440,1/29/2016,1275000,37.755554,-122.42316,Mission,7,Condominium,1885,94110
Address: 1940 Buchanan Street,1,3,1480,1/29/2016,1250000,37.788038,-122.430024,Lower Pacific Heights,5,Condominium,1904,94115
Address: 2275 47th Avenue,2.5,4,2193,1/29/2016,1225000,37.744067,-122.506187,Outer Parkside,7,SingleFamily,1962,94116
Address: 988 Fulton Street #326,1,1,417,1/29/2016,555000,37.778034,-122.43251,Western Addition,5,Condominium,1999,94117
Address: 487 19th Avenue,4,4,2596,1/29/2016,1900000,37.778728,-122.478448,Central Richmond,9,SingleFamily,1916,94121
Address: 448 Gold Mine Drive,3,4,2200,1/29/2016,1558000,37.739244,-122.4371,Diamond Heights,7,SingleFamily,1968,94131
Address: 8200 Oceanview Terrace #310,2,2,969,1/29/2016,658000,37.71048,-122.467645,Ingleside Heights,4,Condominium,2002,94132
Address: 750 Delano Avenue,1,2,840,1/28/2016,738000,37.719505,-122.445759,Outer Mission,4,SingleFamily,1987,94112
Address: 5 Lobos Street,2,4,1726,1/28/2016,950000,37.714682,-122.452504,Oceanview,7,SingleFamily,1974,94112
Address: 4524 Balboa Street,1,2,1200,1/28/2016,961000,37.775504,-122.507477,Outer Richmond,5,SingleFamily,1918,94121
Address: 527 Randolph Street,1,2,950,1/28/2016,695500,37.714051,-122.467584,Ingleside Heights,4,SingleFamily,1947,94132
Address: 1407 Montgomery Street #2,1,1,1000,1/28/2016,976000,37.802299,-122.404941,Telegraph Hill,3,Condominium,1870,94133
Address: 574 Natoma Street #102,1,0,376,1/27/2016,502000,37.779014,-122.409446,South of Market,1,Condominium,2012,94103
Address: 65 Bishop Street,1,3,800,1/27/2016,675000,37.718075,-122.404179,Visitacion Valley,4,SingleFamily,1900,94134
Address: 701 Pennsylvania Avenue,2,1,842,3/24/2015,640000,37.75738,-122.39283,Potrero Hill,2,Condominium,1999,94107
Address: 88 King Street #1121,2,2,1111,1/26/2016,1650000,37.780117,-122.389648,South Beach,4,MultiFamily2To4,2000,94107
Address: 57 Moneta Way,1,4,1325,1/26/2016,860000,37.712918,-122.449446,Outer Mission,6,SingleFamily,1929,94112
Address: 164 Seville Street,3,3,2234,1/26/2016,1125000,37.711727,-122.437085,Crocker Amazon,3,SingleFamily,1924,94112
Address: 145 Alpine Terrace,5.5,6,4749,1/26/2016,5100000,37.768186,-122.437144,Buena Vista Park,10,SingleFamily,2007,94117
Address: 3023 Broderick Street,2.5,3,1591,1/26/2016,1800000,37.798244,-122.44452,Cow Hollow,9,Condominium,1938,94123
Address: 4173 Cesar Chavez Street,4,4,3480,1/26/2016,4500000,37.747092,-122.432912,Noe Valley,8,SingleFamily,1900,94131
Address: 830 Alabama Street #B,2,3,1853,1/25/2016,1370000,37.75816,-122.411765,Mission,9,Condominium,1900,94110
Address: 95 Stoneyford Avenue,2,3,1400,1/25/2016,910000,37.729425,-122.42111,Excelsior,6,SingleFamily,1942,94112
Address: 518 Oak Street,1,2,1105,1/22/2016,1475000,37.774467,-122.428491,Hayes Valley,6,SingleFamily,1870,94102
Address: 1160 Mission Street #1908,2,2,1201,1/22/2016,1475000,37.778705,-122.412635,South of Market,4,Condominium,2008,94103
Address: 451 Kansas Street #461,1,0,450,1/22/2016,640000,37.764114,-122.402984,Potrero Hill,2,Condominium,2007,94107
Address: 2002 Pacific Avenue #4,3.5,3,3291,1/22/2016,4200000,37.794429,-122.428513,Pacific Heights,7,Condominium,1961,94109
Address: 554 Anderson Street,1,2,1015,1/22/2016,920000,37.736454,-122.415593,Bernal Heights,5,SingleFamily,1910,94110
Address: 566 South Van Ness Avenue #9,2,2,941,1/22/2016,945000,37.763992,-122.417823,Mission,5,Condominium,2007,94110
Address: 624 Hampshire Street,1,2,962,1/22/2016,1250000,37.761456,-122.408461,Mission,5,SingleFamily,1900,94110
Address: 40 Mirabel Avenue,2,2,1393,1/22/2016,1530000,37.746247,-122.416564,Bernal Heights,6,SingleFamily,1924,94110
Address: 712 Dorado Terrace #53,2.5,2,1332,1/22/2016,780000,37.725575,-122.4616,Mount Davidson Manor,4,Condominium,1985,94112
Address: 264 Grand View Avenue,1,1,590,1/22/2016,1193000,37.754001,-122.441489,Twin Peaks,5,SingleFamily,1907,94114
Address: 4450 24th Street,3,4,2500,1/22/2016,1400000,37.751072,-122.441843,Noe Valley,5,SingleFamily,1900,94114
Address: 584 Sanchez Street,4,4,2610,1/22/2016,2210000,37.759799,-122.43077,Eureka Valley - Dolores Heights - Castro,13,MultiFamily2To4,1900,94114
Address: 300 Castro Street,3,4,2451,1/22/2016,2400000,37.763918,-122.435614,Corona Heights,12,Miscellaneous,1900,94114
Address: 2319 39th Avenue,2,4,1362,1/22/2016,890000,37.743541,-122.497548,Outer Parkside,6,SingleFamily,1955,94116
Address: 27 Cutler Avenue,3,4,1622,1/28/2016,1325000,37.736824,-122.505856,Outer Parkside,9,SingleFamily,1949,94116
Address: 1535 Oak Street #2,1,1,765,1/22/2016,815000,37.771928,-122.4446,Haight-Ashbury,12,Condominium,1924,94117
Address: 558 17th Avenue,3,5,1990,1/22/2016,1240000,37.777463,-122.47562,Central Richmond,8,MultiFamily2To4,1916,94121
Address: 1722 31st Avenue,2,4,1824,1/22/2016,1700000,37.755071,-122.489092,Central Sunset,6,SingleFamily,1940,94122
Address: 17 San Andreas Way,4.5,5,4095,1/22/2016,3750000,37.734454,-122.463624,St. Francis Wood,9,SingleFamily,1937,94127
Address: 319 Arleta Avenue,3,5,1875,1/22/2016,417000,37.714392,-122.409432,Visitacion Valley,7,SingleFamily,1989,94134
Address: 4390 26th Street,3,5,2837,1/22/2016,2600000,37.748021,-122.437943,Noe Valley,9,SingleFamily,1928,94131
Address: 250 King Street #1008,1,1,787,1/21/2016,825000,37.777374,-122.393157,South of Market,3,Condominium,2004,94107
Address: 724 Noe Street,2,3,1577,1/21/2016,1680000,37.757402,-122.432758,Eureka Valley - Dolores Heights - Castro,6,SingleFamily,1927,94114
Address: 855 La Playa Street #162,1,1,805,1/21/2016,578000,37.772199,-122.510375,Outer Richmond,4,Condominium,1982,94121
Address: 855 La Playa Street #360,2,2,1193,1/21/2016,750000,37.772199,-122.510375,Outer Richmond,4,Condominium,1982,94121
Address: 4220 Irving Street,2,3,1675,1/21/2016,1150000,37.762654,-122.503312,Outer Sunset,7,SingleFamily,1950,94122
Address: 1423 Oakdale Avenue,2,3,1125,1/21/2016,638000,37.732554,-122.38726,Bayview,4,SingleFamily,1938,94124
Address: 15 Bishop Street,3,4,2200,1/21/2016,851000,37.718594,-122.403955,Visitacion Valley,8,SingleFamily,1980,94134
Address: 9 Edgar Place,4,4,1800,1/20/2016,1175000,37.720695,-122.452421,Ingleside,8,SingleFamily,1925,94112
Address: 1949 McAllister Street,3,2,2160,1/20/2016,1505000,37.776786,-122.444044,North Panhandle,7,Condominium,1900,94115
Address: 10 Miller Place #701,2,2,1000,1/19/2016,1290000,37.793228,-122.40891,Nob Hill,4,MultiFamily2To4,1963,94108
Address: 766 40th Avenue,1,2,1034,1/19/2016,1000000,37.774327,-122.500107,Outer Richmond,5,SingleFamily,1924,94121
Address: 22 Magnolia Street,1,2,1231,1/19/2016,1375000,37.80106,-122.43171,Marina,5,Condominium,1927,94123
Address: 170 King Street #928,2,2,1092,1/15/2016,1262500,37.77898,-122.391754,South Beach,4,Condominium,2007,94107
Address: 29 Cumberland Street,1,3,1525,1/15/2016,1300000,37.758876,-122.424258,Mission,6,Condominium,1907,94110
Address: 101 Lombard Street #610W,1,1,1030,1/15/2016,876500,37.80347,-122.40409,Telegraph Hill,4,Condominium,1984,94111
Address: 89 Theresa Street,1,2,1088,1/15/2016,875000,37.728438,-122.434292,Mission Terrace,5,SingleFamily,1923,94112
Address: 2200 Sacramento Street #901,2,1,952,1/15/2016,1125000,37.790681,-122.429498,Pacific Heights,4,Condominium,1964,94115
Address: 2299 Sacramento Street #3,1,2,1406,1/15/2016,1150000,37.790011,-122.43048,Pacific Heights,5,Condominium,1913,94115
Address: 2133 Pine Street,7,9,5085,1/15/2016,1550000,37.787988,-122.431495,Lower Pacific Heights,15,MultiFamily2To4,1900,94115
Address: 2670 47th Avenue,3,4,1546,1/15/2016,1075000,37.736702,-122.505008,Outer Parkside,7,SingleFamily,1944,94116
Address: 107 19th Avenue,2,2,1125,1/15/2016,1150000,37.785783,-122.478874,Lake,4,Condominium,1921,94121
Address: 1501 Greenwich Street #304,2,2,958,1/15/2016,1150000,37.80009,-122.424682,Cow Hollow,4,Condominium,2008,94123
Address: 1738 Lombard Street #T4,2,2,1078,1/15/2016,1400000,37.80091,-122.430229,Marina,4,Condominium,2004,94123
Address: 3725 Webster Street,2,3,1717,1/15/2016,1963000,37.805118,-122.435725,Marina,13,SingleFamily,1938,94123
Address: 3027 Webster Street,3.5,3,2002,1/15/2016,2350000,37.798579,-122.43433,Cow Hollow,9,SingleFamily,1906,94123
Address: 1546 McKinnon Avenue,2,4,1175,1/15/2016,720000,37.735509,-122.388068,Bayview,5,SingleFamily,1940,94124
Address: 478 Los Palmos Drive,1,3,1450,1/15/2016,1200000,37.734682,-122.452493,Westwood Highlands,6,SingleFamily,1947,94127
Address: 367 Vernon Street,3,4,2100,1/15/2016,1300000,37.719099,-122.468325,Merced Heights,7,SingleFamily,1937,94132
Address: 115 Colby Street,3,3,1753,1/15/2016,950000,37.728726,-122.413656,Portola,7,SingleFamily,1970,94134
Address: 138 Bronte Street,1,2,1077,1/14/2016,1045000,37.737634,-122.410499,Bernal Heights,6,SingleFamily,1950,94110
Address: 1819 26th Avenue,1,2,1175,1/14/2016,1000000,37.75348,-122.484273,Central Sunset,5,SingleFamily,1939,94122
Address: 2421 Franklin Street,4,4,2096,1/14/2016,2400000,37.79675,-122.425354,Pacific Heights,8,Condominium,1922,94123
Address: 2865 Vallejo Street,2,3,2230,1/14/2016,7450000,37.79376,-122.444385,Pacific Heights,9,SingleFamily,1925,94123
Address: 1455 Oakdale Avenue,3,5,1594,1/14/2016,935000,37.732869,-122.387815,Bayview,8,SingleFamily,1964,94124
Address: 1920 Jones Street,2,3,1675,1/14/2016,1950000,37.799094,-122.41542,Russian Hill,6,Condominium,1906,94133
Address: 231 Clinton Park,1,2,1440,1/13/2016,1380000,37.768869,-122.425243,Mission,5,Condominium,1922,94103
Address: 721 Delano Avenue,1,1,1210,1/13/2016,700000,37.719729,-122.445083,Outer Mission,5,SingleFamily,1930,94112
Address: 324 Chicago Way,1,3,1465,1/13/2016,990000,37.709611,-122.433129,Crocker Amazon,7,SingleFamily,1924,94112
Address: 2470 Broadway Street,5,5,3851,1/13/2016,6500000,37.794209,-122.437789,Pacific Heights,13,SingleFamily,1910,94115
Address: 528 34th Avenue,6,8,4158,1/13/2016,2240000,37.779053,-122.494007,Outer Richmond,15,Duplex,1987,94121
Address: 2425 Lincoln Way,1,2,1500,1/13/2016,1265000,37.764874,-122.484231,Central Sunset,6,SingleFamily,1923,94122
Address: 2828 Divisadero Street,5.5,5,5590,1/13/2016,8400000,37.795785,-122.441671,Cow Hollow,11,SingleFamily,1912,94123
Address: 2130 Quesada Avenue,2,4,995,1/13/2016,680000,37.738125,-122.399345,Silver Terrace,5,SingleFamily,1944,94124
Address: 59 Manor Drive,1.5,3,1575,1/13/2016,1250000,37.727581,-122.464761,Mount Davidson Manor,7,SingleFamily,1930,94127
Address: 22 Liberty Street,1,3,1379,1/12/2016,1389000,37.75791,-122.421827,Mission,6,Condominium,1879,94110
Address: 601 Capitol Avenue,2,4,2008,1/12/2016,800000,37.715924,-122.459257,Oceanview,7,SingleFamily,1977,94112
Address: 1621 McAllister Street,2,7,3974,1/12/2016,2400000,37.777505,-122.438785,North Panhandle,12,Duplex,1900,94115
Address: 554 46th Avenue,1,2,830,1/12/2016,665000,37.778042,-122.506661,Outer Richmond,5,SingleFamily,1900,94121
Address: 12 Las Villas Court,3,3,1480,1/12/2016,570000,37.733425,-122.385585,Bayview,7,SingleFamily,1995,94124
Address: 620 29th Street,2,5,1365,1/12/2016,1050000,37.743503,-122.433974,Noe Valley,9,SingleFamily,1913,94131
Address: 383 Missouri Street,1,2,1625,1/11/2016,1310000,37.761581,-122.396117,Potrero Hill,6,Condominium,1904,94107
Address: 1250 Clay Street #306,1,1,541,1/11/2016,695000,37.793575,-122.41367,Nob Hill,3,Condominium,1950,94108
Address: 1177 California Street #1212,1,1,1056,1/11/2016,1200000,37.791089,-122.413658,Downtown,3,Condominium,1978,94108
Address: 1200 Gough Street #16D,1,1,900,1/11/2016,825000,37.78482,-122.423994,Van Ness - Civic Center,4,Condominium,1966,94109
Address: 39 Bradford Street,1,2,775,1/11/2016,1250000,37.742618,-122.409173,Bernal Heights,4,SingleFamily,1947,94110
Address: 111 Harold Avenue,1,2,1087,1/11/2016,720000,37.720294,-122.453327,Ingleside,4,SingleFamily,1947,94112
Address: 86 Restani Way,3.5,3,2781,1/11/2016,1054000,37.718283,-122.443689,Outer Mission,8,SingleFamily,1954,94112
Address: 355 1st Street #1702,2,2,1166,1/8/2016,1570000,37.787029,-122.3936,South Beach,4,Condominium,2004,94105
Address: 88 King Street #103,3,3,1466,1/8/2016,1370000,37.78063,-122.389635,South Beach,6,Condominium,2000,94107
Address: 81 Frank Norris Street #504,1,1,800,1/8/2016,718000,37.789081,-122.420051,Downtown,4,Condominium,2007,94109
Address: 72 Crescent Avenue,3,4,3000,1/8/2016,1625000,37.734991,-122.42276,Bernal Heights,7,SingleFamily,1951,94110
Address: 1316 Guerrero Street,5,6,4000,1/8/2016,1706000,37.749991,-122.423045,Mission,14,Duplex,1925,94110
Address: 3532 23rd Street,1,2,1375,1/8/2016,1900000,37.753856,-122.422349,Mission,10,SingleFamily,1900,94110
Address: 1406 Golden Gate Avenue,3,3,1628,1/8/2016,1200000,37.779515,-122.433995,Western Addition,6,Condominium,1885,94115
Address: 1833 Laguna Street,4.5,5,4400,1/8/2016,5500000,37.788072,-122.428971,Lower Pacific Heights,9,SingleFamily,1900,94115
Address: 1576 Waller Street,1,3,1668,1/8/2016,1495000,37.768882,-122.45008,Haight-Ashbury,8,Condominium,1900,94117
Address: 1558 45th Avenue,2,2,1370,1/8/2016,930000,37.757512,-122.504319,Outer Sunset,8,SingleFamily,1957,94122
Address: 2165 Revere Avenue,1.5,3,1125,1/8/2016,1040000,37.737461,-122.400912,Silver Terrace,5,SingleFamily,1925,94124
Address: 95 Red Rock Way #303M,1,0,592,1/8/2016,530000,37.746324,-122.441517,Diamond Heights,2,Condominium,1972,94131
Address: 270 Bright Street,1,2,1010,1/8/2016,750000,37.715614,-122.463238,Ingleside Heights,4,SingleFamily,1928,94132
Address: 1097 Howard Street #303,1,1,1056,1/7/2016,975000,37.777996,-122.408912,South of Market,2,Condominium,1998,94103
Address: 260 King Street #605,2,2,1488,1/7/2016,1475000,37.777641,-122.393417,South of Market,4,Condominium,2004,94107
Address: 930 Ashbury Street,4,4,2510,1/7/2016,2278000,37.765123,-122.445719,Parnassus - Ashbury,10,SingleFamily,1917,94117
Address: 133 Richardson Avenue,3,3,2323,1/7/2016,2080000,37.79989,-122.446839,Cow Hollow,6,SingleFamily,1939,94123
Address: 3315 Pierce Street,3.5,3,2255,1/7/2016,2500000,37.80065,-122.439786,Marina,7,SingleFamily,1925,94123
Address: 601 Van Ness Avenue #201,1,1,750,1/6/2016,555000,37.781386,-122.421406,Van Ness - Civic Center,3,Condominium,1982,94102
Address: 260 King Street #1009,1,1,823,1/6/2016,750000,37.777191,-122.393394,South of Market,3,Condominium,2004,94107
Address: 728 Alabama Street #105,1,1,642,1/6/2016,655000,37.760025,-122.412025,Mission,3,Condominium,1995,94110
Address: 50 Roscoe Street,2,4,2150,1/6/2016,1735000,37.734268,-122.419017,Bernal Heights,10,MultiFamily2To4,1963,94110
Address: 14 Stoneyford Avenue,1,3,1158,1/6/2016,650000,37.730923,-122.421186,Excelsior,6,SingleFamily,1942,94112
Address: 324 Hanover Street,1,2,1325,1/6/2016,700000,37.70932,-122.443403,Crocker Amazon,5,SingleFamily,1927,94112
Address: 1760 Ofarrell Street #18,2,2,1061,1/6/2016,838000,37.783415,-122.43399,Western Addition,5,Condominium,1984,94115
Address: 811 40th Avenue,1,2,1095,1/6/2016,880000,37.773411,-122.500678,Outer Richmond,5,SingleFamily,1914,94121
Address: 938 Market Street,1,1,693,11/25/2009,310000,37.783908,-122.408889,Downtown,4,Condominium,2007,94102
Address: 632 Mississippi Street,1,2,1100,1/5/2016,1420000,37.758382,-122.394495,Potrero Hill,5,SingleFamily,1922,94107
Address: 7 Lee Avenue,3,2,1370,1/5/2016,1100000,37.718407,-122.454339,Ingleside,4,SingleFamily,1924,94112
Address: 2223 44th Avenue,2,3,1747,1/5/2016,1325000,37.7451,-122.503034,Outer Parkside,9,SingleFamily,1939,94116
Address: 1626 32nd Avenue,3,4,2100,1/5/2016,1425000,37.756819,-122.490297,Central Sunset,9,SingleFamily,1935,94122
Address: 1387 14th Avenue,2,4,1926,1/5/2016,1655000,37.762208,-122.471851,Inner Sunset,8,SingleFamily,1931,94122
Address: 1765 15th Avenue,3.5,5,3114,1/5/2016,2250000,37.755478,-122.472504,Golden Gate Heights,8,SingleFamily,1981,94122
Address: 1243 Quesada Avenue,1,2,1250,1/5/2016,610000,37.728318,-122.383131,Bayview,7,SingleFamily,1927,94124
Address: 423 28th Street #201,2,3,1875,1/5/2016,1589000,37.744745,-122.43187,Noe Valley,7,Condominium,1981,94131
Address: 8200 Oceanview Terrace #204,1,1,688,1/5/2016,510000,37.71048,-122.467645,Ingleside Heights,3,Condominium,2002,94132
Address: 851 South Van Ness Avenue #104,2,2,1227,1/4/2016,641000,37.78352,-122.421356,Van Ness - Civic Center,3,Condominium,2002,94109
Address: 54 Marston Avenue,5,5,2500,1/4/2016,1650000,37.727716,-122.445802,Sunnyside,7,SingleFamily,1927,94112
Address: 2151 Laguna Street #2,2,3,2624,1/4/2016,4500000,37.791114,-122.429586,Pacific Heights,7,Condominium,1919,94115
Address: 28 Williams Avenue,2,2,1250,1/4/2016,660000,37.729497,-122.393183,Bayview,5,SingleFamily,1930,94124
Address: 304 Gold Mine Drive,3,5,2504,1/4/2016,1651000,37.740484,-122.438964,Diamond Heights,7,SingleFamily,1968,94131
Address: 180 7th Street #408,1,1,470,12/31/2015,550000,37.778082,-122.410082,South of Market,3,Condominium,1992,94103
Address: 961 San Bruno Avenue,2,2,1297,12/31/2015,980000,37.757433,-122.404508,Mission,6,SingleFamily,1927,94110
Address: 591 27th Avenue,1,2,900,12/31/2015,897000,37.778299,-122.486969,Central Richmond,4,SingleFamily,1915,94121
Address: 520 El Camino Del Mar,5.5,6,4840,12/31/2015,6100000,37.787975,-122.488862,Sea Cliff,12,SingleFamily,1926,94121
Address: 19 Bridgeview Drive,2,3,1092,12/31/2015,640000,37.7342,-122.394079,Silver Terrace,5,SingleFamily,1944,94124
Address: 446 Chenery Street,1,1,977,12/31/2015,1064000,37.736154,-122.429739,Glen Park,5,SingleFamily,1911,94131
Address: 114 Clearfield Drive,2,3,1790,12/31/2015,1350000,37.731595,-122.491148,Lakeshore,7,SingleFamily,1951,94132
Address: 1070 Green Street #1402,2.5,3,2017,12/31/2015,2600000,37.798792,-122.416797,Russian Hill,6,Condominium,1963,94133
Address: 1 Crescent Way #1402,2,2,1063,12/31/2015,660000,37.71085,-122.390182,Bayview,5,Condominium,2001,94134
Address: 181 Ofarrell Street #514,1.5,1,1080,12/30/2015,978000,37.78619,-122.40763,Downtown,5,MultiFamily2To4,2006,94102
Address: 355 1st Street #1503,1,1,795,1/3/2016,1124500,37.787029,-122.3936,South Beach,3,Condominium,2004,94105
Address: 355 1st Street #1602,2,2,1239,12/30/2015,1500000,37.787029,-122.393638,South Beach,4,MultiFamily2To4,2004,94105
Address: 2250 24th Street #319,1,2,809,12/30/2015,675000,37.753905,-122.40202,Potrero Hill,4,Condominium,1989,94107
Address: 638 19th Street #10,2.5,3,1467,12/30/2015,1525000,37.762084,-122.389007,Central Waterfront - Dogpatch,5,Condominium,2007,94107
Address: 270 Nevada Street,4,3,2371,12/30/2015,2075000,37.738665,-122.411652,Bernal Heights,6,SingleFamily,1900,94110
Address: 1988 Alemany Boulevard,1,3,1466,12/30/2015,860000,37.72044,-122.43969,Mission Terrace,7,SingleFamily,1939,94112
Address: 445 Persia Avenue,1,3,1435,12/30/2015,950000,37.721458,-122.432181,Excelsior,6,MultiFamily2To4,1955,94112
Address: 1145 Cayuga Avenue,1,3,1590,12/30/2015,1050000,37.719885,-122.441105,Mission Terrace,6,SingleFamily,1941,94112
Address: 95 Red Rock Way #202M,1,1,830,12/30/2015,670000,37.746339,-122.44152,Diamond Heights,3,Condominium,1972,94131
Address: 159 Glenview Drive,1,2,833,12/30/2015,760000,37.748824,-122.447752,Midtown Terrace,4,SingleFamily,1951,94131
Address: 1915 Diamond Street,3,4,2400,12/29/2015,1800000,37.742141,-122.435111,Glen Park,6,SingleFamily,1910,94131
Address: 201 Harrison Street #407,1,0,410,12/29/2015,525000,37.787585,-122.39048,South Beach,1,Condominium,1991,94105
Address: 81 Lansing Street #410,1,1,855,12/29/2015,778000,37.785651,-122.39403,South Beach,4,Condominium,1995,94105
Address: 1177 California Street #423,1,0,706,12/29/2015,738000,37.791089,-122.413658,Downtown,2,Condominium,1978,94108
Address: 2311 Scott Street #1,2,3,1986,12/29/2015,2720000,37.79137,-122.439704,Pacific Heights,7,MultiFamily2To4,1965,94115
Address: 430 Mangels Avenue,1,2,1200,12/29/2015,1100000,37.733308,-122.447346,Sunnyside,5,SingleFamily,1931,94127
Address: 179 Flood Avenue,4,4,1900,12/29/2015,1538000,37.729648,-122.4438,Sunnyside,8,SingleFamily,1924,94131
Address: 151 Everglade Drive,3,3,1858,12/29/2015,1400000,37.731504,-122.489116,Lakeshore,8,SingleFamily,1950,94132
Address: 1101 Pacific Avenue #302,2,2,1009,12/29/2015,1000000,37.795912,-122.413603,Nob Hill,4,Condominium,2000,94133
Address: 1015 Goettingen Street,2,3,1900,12/29/2015,880000,37.719474,-122.403272,Visitacion Valley,8,SingleFamily,1954,94134
Address: 400 Beale Street #2506,2,2,1215,12/28/2015,1198000,37.78691,-122.390925,South Beach,5,Condominium,2002,94105
Address: 178 Jules Avenue,1,3,1350,12/24/2015,821500,37.721438,-122.460928,Ingleside,6,SingleFamily,1946,94112
Address: 2801 Jackson Street #12,1,2,1330,12/24/2015,1418000,37.791415,-122.441445,Pacific Heights,5,Condominium,1906,94115
Address: 1442 Grove Street #A,1,1,593,12/24/2015,675000,37.775894,-122.440467,North Panhandle,4,Condominium,1890,94117
Address: 1667 34th Avenue,1,2,1350,12/24/2015,1050000,37.75601,-122.493047,Central Sunset,5,SingleFamily,1940,94122
Address: 382 Surrey Street,2.5,3,1625,12/24/2015,1900000,37.735936,-122.438508,Glen Park,6,SingleFamily,1966,94131
Address: 338 Spear Street #4C,1,1,799,12/23/2015,949000,37.789533,-122.390371,South Beach,4,Condominium,2009,94105
Address: 219 Brannan Street #1B,2,2,900,12/23/2015,1098000,37.782575,-122.390364,South Beach,4,Condominium,2000,94107
Address: 1562 22nd Street,2,3,2542,12/23/2015,1665000,37.757671,-122.396586,Potrero Hill,6,Condominium,2006,94107
Address: 1268 Lombard Street #2,2,3,1860,12/23/2015,3195000,37.801884,-122.422424,Russian Hill,5,Condominium,2013,94109
Address: 977 Guerrero Street,1,2,1440,12/23/2015,2000000,37.755558,-122.422897,Mission,6,Condominium,1900,94110
Address: 2670 San Jose Avenue,1,3,1001,12/23/2015,756000,37.714831,-122.451887,Oceanview,4,SingleFamily,1949,94112
Address: 2 Northwood Drive,2,3,1960,12/23/2015,1800000,37.72982,-122.456873,Westwood Park,6,SingleFamily,1924,94112
Address: 83 Seward Street,2,3,2650,12/23/2015,2100000,37.758694,-122.440807,Eureka Valley - Dolores Heights - Castro,8,SingleFamily,1929,94114
Address: 1059 Noe Street,2.5,3,2545,12/23/2015,2495000,37.752026,-122.431666,Noe Valley,8,SingleFamily,1912,94114
Address: 1310 Scott Street #40,2,3,1270,12/23/2015,958000,37.78228,-122.43682,Western Addition,6,Condominium,1986,94115
Address: 2287 43rd Avenue,2,3,1331,12/23/2015,968000,37.744054,-122.50182,Outer Parkside,5,SingleFamily,1941,94116
Address: 2195 28th Avenue,3,4,2260,12/23/2015,1350000,37.746487,-122.48589,Parkside,9,SingleFamily,1939,94116
Address: 2920 Anza Street,2,4,2102,12/23/2015,310000,37.778636,-122.479699,Central Richmond,11,SingleFamily,1920,94121
Address: 78 22nd Avenue,4.5,4,4017,12/23/2015,4300000,37.786394,-122.481641,Lake,11,SingleFamily,1907,94121
Address: 1727 29th Avenue,3.5,4,2580,12/23/2015,1880000,37.755068,-122.487595,Central Sunset,8,SingleFamily,1939,94122
Address: 1459 Thomas Avenue,3,6,1950,12/23/2015,655000,37.728719,-122.388835,Bayview,9,MultiFamily2To4,1900,94124
Address: 646 Los Palmos Drive,3,5,2956,12/23/2015,1360000,37.735214,-122.456586,Westwood Highlands,8,SingleFamily,1979,94127
Address: 1231 Bosworth Street,1,1,600,12/23/2015,899000,37.735495,-122.441225,Glen Park,4,SingleFamily,1910,94131
Address: 567 27th Street #3,2,3,1600,12/23/2015,1400000,37.746306,-122.432752,Noe Valley,5,Condominium,1989,94131
Address: 74 Newburg Street,2,4,1625,12/23/2015,2250000,37.745818,-122.434713,Noe Valley,10,SingleFamily,1941,94131
Address: 1381 Sanchez Street,3,4,2000,12/23/2015,2600000,37.747076,-122.428941,Noe Valley,7,SingleFamily,1900,94131
Address: 425 1st Street #802,2,2,1309,12/22/2015,1340000,37.786041,-122.392654,South Beach,4,Townhouse,2008,94105
Address: 4647 25th Street,2.5,3,2041,12/22/2015,1450000,37.749075,-122.441235,Noe Valley,7,Condominium,1978,94114
Address: 350 Eureka Street,2,4,1720,12/22/2015,2400000,37.756462,-122.438189,Eureka Valley - Dolores Heights - Castro,7,SingleFamily,1910,94114
Address: 3100 Washington Street #6,1,1,808,12/22/2015,825000,37.79053,-122.444565,Pacific Heights,3,Condominium,1964,94115
Address: 1880 Steiner Street #101,3,2,1332,12/22/2015,1350000,37.786575,-122.43472,Lower Pacific Heights,5,Condominium,1999,94115
Address: 3016 Sacramento Street,1.5,2,1408,12/22/2015,1853000,37.78897,-122.442995,Pacific Heights,5,Condominium,1890,94115
Address: 2007 46th Avenue,2,3,1300,12/22/2015,905000,37.749009,-122.505371,Outer Parkside,6,SingleFamily,1940,94116
Address: 2555 28th Avenue,2,4,1360,12/22/2015,1010000,37.739715,-122.485461,Parkside,7,SingleFamily,1910,94116
Address: 790 7th Avenue #104,1,2,560,12/22/2015,600000,37.773831,-122.464603,Inner Richmond,4,Condominium,1981,94118
Address: 2845 Noriega Street,2.5,3,2180,12/22/2015,1230000,37.75325,-122.494457,Central Sunset,6,SingleFamily,1947,94122
Address: 3835 Scott Street #105,1,1,1118,12/22/2015,1125000,37.805235,-122.442515,Marina,4,Condominium,1928,94123
Address: 6 Longview Court,1,2,939,12/22/2015,955000,37.748307,-122.449855,Midtown Terrace,4,SingleFamily,1958,94131
Address: 232 Bemis Street,1,2,1000,12/22/2015,1085000,37.736524,-122.431895,Glen Park,5,SingleFamily,1904,94131
Address: 87 Clearfield Drive,2,3,1386,12/22/2015,1360000,37.732345,-122.491719,Lakeshore,6,SingleFamily,1951,94132
Address: 23 Rodgers Street,1,1,538,12/21/2015,625000,37.775309,-122.409205,South of Market,3,Condominium,1908,94103
Address: 38 Bryant Street #606,1,1,582,12/21/2015,650000,37.787466,-122.38898,South Beach,2,Condominium,1994,94105
Address: 66 Cleary Court #1408,2,2,1106,12/21/2015,895000,37.784298,-122.427058,Western Addition,5,Condominium,1963,94109
Address: 130 Vienna Street,3,4,1853,12/21/2015,950000,37.726299,-122.426347,Excelsior,6,SingleFamily,1907,94112
Address: 1858 47th Avenue,2,3,1135,12/21/2015,895000,37.751825,-122.506072,Outer Sunset,5,SingleFamily,1958,94122
Address: 59 Rico Way,1.5,3,1675,12/21/2015,2550000,37.804909,-122.43965,Marina,6,SingleFamily,1925,94123
Address: 3001 Castro Street,3,4,2755,12/21/2015,1695000,37.735783,-122.432356,Glen Park,8,SingleFamily,1927,94131
Address: 601 Van Ness Avenue #78,2,2,952,12/18/2015,810000,37.781386,-122.421406,Van Ness - Civic Center,5,Condominium,1982,94102
Address: 270 Valencia Street #503,1,2,747,12/18/2015,890000,37.76852,-122.422592,Mission,3,Condominium,2005,94103
Address: 1177 California Street #702,1,1,511,12/18/2015,665000,37.791089,-122.413658,Downtown,2,Condominium,1978,94108
Address: 1438 Green Street #5A,2,2,1206,12/18/2015,1278000,37.798116,-122.42288,Russian Hill,4,Condominium,1998,94109
Address: 1080 Sutter Street #1001,2,3,1273,12/18/2015,1450000,37.788066,-122.418065,Downtown,4,Condominium,2014,94109
Address: 249 Mullen Avenue,2,2,1275,12/18/2015,1025000,37.746969,-122.407362,Bernal Heights,5,SingleFamily,1907,94110
Address: 1049 Dolores Street #4,1,2,904,12/18/2015,1266000,37.752658,-122.424819,Mission,3,Condominium,1960,94110
Address: 221 Flood Avenue,6,9,5000,12/18/2015,1405000,37.729648,-122.444867,Sunnyside,7,SingleFamily,1900,94112
Address: 533 Elizabeth Street,3,4,1744,12/18/2015,1880000,37.751929,-122.432815,Noe Valley,7,SingleFamily,1955,94114
Address: 419 Hill Street,2,3,2000,12/18/2015,2500000,37.755283,-122.430545,Eureka Valley - Dolores Heights - Castro,7,SingleFamily,1908,94114
Address: 2559 44th Avenue,1,2,1214,12/18/2015,625000,37.738891,-122.502597,Outer Parkside,5,SingleFamily,1945,94116
Address: 2178 22nd Avenue,3,3,1518,12/18/2015,1438000,37.747074,-122.478867,Parkside,6,SingleFamily,1928,94116
Address: 801 42nd Avenue,3,3,2730,12/18/2015,1460000,37.773449,-122.502803,Outer Richmond,8,SingleFamily,1923,94121
Address: 1700 14th Avenue,3,3,1756,12/18/2015,760000,37.756259,-122.470752,Golden Gate Heights,7,SingleFamily,1978,94122
Address: 1343 31st Avenue,2,3,1886,12/18/2015,1250000,37.762152,-122.490254,Central Sunset,6,SingleFamily,1934,94122
Address: 2601 Lawton Street,1,3,1450,12/18/2015,1250000,37.757201,-122.490916,Central Sunset,6,SingleFamily,1942,94122
Address: 1440 La Playa Street,2,3,1313,12/18/2015,1303500,37.759503,-122.508756,Outer Sunset,6,SingleFamily,1900,94122
Address: 2953 Broderick Street,2.5,2,1876,12/18/2015,3000000,37.797633,-122.444344,Cow Hollow,6,SingleFamily,1923,94123
Address: 27 Gaviota Way,3,3,2155,12/18/2015,1750000,37.739232,-122.44758,Miraloma Park,5,SingleFamily,1942,94127
Address: 5 Red Rock Way #75,2,3,1310,12/18/2015,900000,37.74598,-122.442612,Diamond Heights,6,Condominium,1964,94131
Address: 227 Delta Street,1,3,825,12/18/2015,642000,37.71541,-122.408311,Visitacion Valley,4,SingleFamily,1958,94134
Address: 156 Mary Teresa Street,2,2,1207,12/18/2015,800000,37.713792,-122.398735,Little Hollywood,4,Condominium,2008,94134
Address: 131 Brussels Street,3,4,2269,12/18/2015,1255000,37.730359,-122.406597,Portola,6,SingleFamily,1916,94134
Address: 557 Birch Street,3,3,1635,12/17/2015,1575000,37.777827,-122.42579,Hayes Valley,10,SingleFamily,2001,94102
Address: 643 Natoma Street,1,2,887,7/16/2014,725000,37.777526,-122.410789,South of Market,5,Condominium,1910,94103
Address: 281 Clinton Park,1,3,1532,12/17/2015,1300000,37.768856,-122.426261,Mission,6,Condominium,1916,94103
Address: 765 Market Street #31H,3,2,1434,12/17/2015,2800000,37.78622,-122.40431,Yerba Buena,5,Condominium,2001,94103
Address: 188 Minna Street #28B,2.5,2,1740,12/17/2015,2850000,37.786289,-122.401374,Yerba Buena,5,Condominium,2005,94105
Address: 540 Texas Street,4,2,1700,12/17/2015,2162500,37.759462,-122.39557,Potrero Hill,5,SingleFamily,1926,94107
Address: 437 London Street,1,2,900,12/17/2015,760000,37.722014,-122.435432,Excelsior,6,SingleFamily,1925,94112
Address: 528 Miramar Avenue,1,2,1328,12/17/2015,918000,37.726323,-122.457891,Westwood Park,5,SingleFamily,1919,94112
Address: 1326 Lyon Street,1.5,2,1300,12/17/2015,945000,37.783218,-122.444229,Lower Pacific Heights,5,Condominium,1906,94115
Address: 1480 Golden Gate Avenue,2.5,4,2151,12/17/2015,1809000,37.779426,-122.434875,Western Addition,8,Condominium,1900,94115
Address: 2076 14th Avenue,1,2,1374,12/17/2015,1280000,37.749428,-122.470497,Golden Gate Heights,6,SingleFamily,1941,94116
Address: 539 44th Avenue,1,2,1290,12/17/2015,998500,37.778322,-122.505364,Outer Richmond,6,SingleFamily,1922,94121
Address: 1555 21st Avenue,2,2,1204,12/17/2015,1100000,37.758688,-122.479261,Central Sunset,5,SingleFamily,1926,94122
Address: 1383 29th Avenue,2,4,1475,12/17/2015,1175000,37.761563,-122.488023,Central Sunset,7,SingleFamily,1941,94122
Address: 1783 Newcomb Avenue,1,2,1385,12/17/2015,680000,37.736956,-122.393362,Bayview,6,SingleFamily,1925,94124
Address: 1401 Shafter Avenue,2,2,1412,12/17/2015,755000,37.728789,-122.387291,Bayview,5,SingleFamily,1929,94124
Address: 142 Russ Street #5,2,2,2198,12/20/2015,1475000,37.778152,-122.407806,South of Market,4,Condominium,1999,94103
Address: 6 Mint Plaza #702A,3,3,1670,12/16/2015,2550000,37.78308,-122.407541,South of Market,6,Condominium,1900,94103
Address: 2080 3rd Street #8,2,1,998,12/17/2015,875000,37.763302,-122.3891,Central Waterfront - Dogpatch,3,Condominium,1998,94107
Address: 555 4th Street #513,2,2,1177,12/16/2015,1180000,37.779422,-122.396712,South of Market,5,Condominium,2006,94107
Address: 650 Delancey Street #203,2,2,1619,12/16/2015,2175000,37.782775,-122.389686,South Beach,3,Condominium,1996,94107
Address: 1945 Washington Street #411,1,1,653,12/16/2015,665000,37.792472,-122.425281,Pacific Heights,3,Condominium,1987,94109
Address: 1143 Naples Street,3,5,3034,12/16/2015,950000,37.712673,-122.436874,Crocker Amazon,9,SingleFamily,1920,94112
Address: 130 Shakespeare Street,14,7,1308,12/23/2015,1000000,37.708635,-122.462835,Outer Mission,7,SingleFamily,2015,94112
Address: 559 21st Avenue,1,2,1400,12/16/2015,1250000,37.77724,-122.480556,Central Richmond,5,SingleFamily,1918,94121
Address: 1706 12th Avenue,2,4,1861,12/16/2015,1500000,37.75624,-122.468725,Inner Sunset,8,SingleFamily,1938,94122
Address: 71 Los Palmos Drive,1.5,3,1278,12/16/2015,1080000,37.734774,-122.447415,Miraloma Park,6,SingleFamily,1955,94127
Address: 344 Moncada Way,1,2,1778,12/16/2015,1415000,37.729763,-122.469902,Ingleside Terrace,6,SingleFamily,1925,94127
Address: 15 Santa Clara Avenue,2,5,2515,12/16/2015,2000000,37.739074,-122.465767,St. Francis Wood,7,SingleFamily,1921,94127
Address: 2576 Diamond Street,2,2,878,12/16/2015,1265000,37.737683,-122.43496,Glen Park,5,SingleFamily,1906,94131
Address: 163 Monterey Boulevard,2,3,1476,12/16/2015,1281000,37.731291,-122.438902,Sunnyside,5,SingleFamily,1939,94131
Address: 455 Vallejo Street #111,1,1,825,12/16/2015,875000,37.798796,-122.404766,Telegraph Hill,3,Condominium,1973,94133
Address: 333 1st Street #2103,1,1,713,12/15/2015,1029000,37.787029,-122.393638,South Beach,3,Condominium,2004,94105
Address: 260 King Street #421,1,1,695,12/15/2015,731000,37.777641,-122.393417,South of Market,3,Condominium,2004,94107
Address: 1177 California Street #501,1,1,884,12/15/2015,900000,37.791089,-122.413658,Downtown,3,Condominium,1978,94108
Address: 1896 Pacific Avenue #802,2.5,2,2272,12/17/2014,2735000,37.794706,-122.426347,Pacific Heights,6,Condominium,1924,94109
Address: 1250 Jones Street #802,1,1,1115,12/15/2015,1680000,37.793071,-122.414049,Nob Hill,5,Condominium,1929,94109
Address: 1807 Jones Street,2,2,1467,12/15/2015,1700000,37.79792,-122.415745,Russian Hill,5,Condominium,1922,94109
Address: 1248 Utah Street,4,4,2770,12/15/2015,2500000,37.753647,-122.405683,Mission,8,SingleFamily,1915,94110
Address: 2294 42nd Avenue,2,3,1650,12/15/2015,1060000,37.743988,-122.500211,Outer Parkside,7,SingleFamily,1946,94116
Address: 2771 38th Avenue,2,3,1655,12/15/2015,1175000,37.735233,-122.495898,Outer Parkside,7,SingleFamily,1948,94116
Address: 544 Waller Street #1,3,3,1312,12/15/2015,1900000,37.771145,-122.43275,Hayes Valley,5,Condominium,1983,94117
Address: 699 36th Avenue #408,3,3,1639,12/15/2015,925000,37.775999,-122.49655,Outer Richmond,7,SingleFamily,1997,94121
Address: 16 Miraloma Drive,4,6,4883,12/15/2015,2700000,37.739831,-122.460533,St. Francis Wood,11,SingleFamily,1928,94127
Address: 155 Arbor Street,1,3,1550,12/15/2015,1080000,37.736967,-122.437193,Glen Park,6,SingleFamily,1937,94131
Address: 2212 Castro Street,4,4,4017,12/15/2015,3595000,37.743817,-122.433688,Noe Valley,10,SingleFamily,2007,94131
Address: 1821 Grant Avenue #101,1,1,1048,12/15/2015,835000,37.803748,-122.408531,Telegraph Hill,2,Condominium,1975,94133
Address: 1132 Goettingen Street,2.5,4,1586,12/15/2015,850000,37.717968,-122.403125,Visitacion Valley,6,SingleFamily,1947,94134
Address: 130 Langton Street #A,1.5,2,1000,12/14/2015,750000,37.77576,-122.40796,South of Market,3,Condominium,1906,94103
Address: 760 Treat Avenue #1,2,3,1275,12/14/2015,1530000,37.75797,-122.413821,Mission,5,Condominium,1900,94110
Address: 720 Clipper Street,4,5,3202,12/14/2015,1500000,37.748866,-122.440925,Noe Valley,11,MultiFamily2To4,1976,94114
Address: 2820 Jackson Street,3.5,5,3212,12/14/2015,4000000,37.791799,-122.44168,Pacific Heights,12,SingleFamily,1900,94115
Address: 1327 Cabrillo Street,1,3,1755,12/14/2015,1285000,37.774707,-122.472938,Central Richmond,6,Condominium,1922,94118
Address: 783 La Playa Street #2,1,1,667,12/14/2015,535000,37.77369,-122.51034,Outer Richmond,3,Condominium,1991,94121
Address: 1526 45th Avenue,2,2,1400,12/14/2015,925000,37.75806,-122.504358,Outer Sunset,8,SingleFamily,1916,94122
Address: 469 Clementina Street #12,1,1,600,12/11/2015,650000,37.779336,-122.405351,South of Market,3,Condominium,1993,94103
Address: 9 Lafayette Street #3,2,2,1215,12/11/2015,975000,37.773411,-122.417548,South of Market,4,Condominium,2003,94103
Address: 355 1st Street #S909,2,2,995,12/11/2015,1249000,37.787031,-122.393642,South Beach,4,Condominium,2004,94105
Address: 1324 20th Street,1,2,1000,12/11/2015,1317500,37.760291,-122.394893,Potrero Hill,5,SingleFamily,1925,94107
Address: 1521 Sutter Street #304,2,2,1098,12/11/2015,1095000,37.786731,-122.425918,Lower Pacific Heights,4,Condominium,2008,94109
Address: 2828 Polk Street,2,2,1325,12/11/2015,1650000,37.802829,-122.423092,Russian Hill,5,Condominium,1941,94109
Address: 55 Alvarado Street,1,2,994,12/11/2015,1220000,37.754366,-122.422347,Mission,4,Condominium,1906,94110
Address: 1088 Huron Avenue #1,1,1,596,12/11/2015,486000,37.708438,-122.45457,Outer Mission,4,Condominium,1999,94112
Address: 4021 Mission Street,1,2,1416,12/11/2015,1052000,37.733106,-122.426556,Bernal Heights,6,SingleFamily,1941,94112
Address: 154 Westwood Drive,2,3,1200,12/11/2015,1108000,37.728721,-122.458881,Westwood Park,5,SingleFamily,1925,94112
Address: 38 Levant Street,1.5,2,1090,12/11/2015,1593000,37.764521,-122.442597,Corona Heights,5,SingleFamily,1938,94114
Address: 2215 California Street,6,5,3485,12/11/2015,5050000,37.788944,-122.431099,Lower Pacific Heights,7,SingleFamily,1900,94115
Address: 2343 30th Avenue,1,2,1340,12/11/2015,981500,37.743553,-122.487877,Parkside,5,SingleFamily,1938,94116
Address: 349 Frederick Street,2.5,3,2084,12/11/2015,1525000,37.766586,-122.449058,Haight-Ashbury,6,Condominium,1900,94117
Address: 1554 Masonic Avenue,2,3,1540,12/11/2015,1860000,37.765936,-122.443759,Buena Vista Park,6,SingleFamily,1910,94117
Address: 3316 California Street #3,3,4,1779,12/11/2015,1865000,37.78726,-122.44917,Presidio Heights,11,Condominium,2000,94118
Address: 199 Chestnut Street #5,1,1,1060,12/11/2015,1499000,37.804392,-122.40659,Telegraph Hill,4,Condominium,1930,94133
Address: 601 Van Ness Avenue #944,1,1,894,12/10/2015,600000,37.781386,-122.421406,Van Ness - Civic Center,3,Condominium,1982,94102
Address: 175 Russ Street #14,2.5,2,1361,12/10/2015,1185000,37.778156,-122.40699,South of Market,5,Condominium,2003,94103
Address: 1452 Bush Street #1,2.5,2,1176,12/10/2015,1080000,37.788838,-122.421268,Van Ness - Civic Center,4,Condominium,2004,94109
Address: 400 Alemany Boulevard #15,2,2,1048,12/11/2015,700000,37.733174,-122.414551,Bernal Heights,5,Condominium,2003,94110
Address: 450 Prentiss Street,1,2,1070,12/10/2015,999000,37.737609,-122.412376,Bernal Heights,5,SingleFamily,1926,94110
Address: 648 South Van Ness Avenue,1,2,4275,12/10/2015,1490000,37.762704,-122.417605,Mission,16,MultiFamily2To4,1911,94110
Address: 430 Fair Oaks Street,3,4,2678,12/10/2015,2290000,37.749725,-122.424094,Mission,8,Condominium,1911,94110
Address: 29 Dorland Street,3.5,4,3455,12/10/2015,4800000,37.762093,-122.424584,Mission,7,SingleFamily,1907,94110
Address: 33 Santa Cruz Avenue #3,3,3,1738,12/10/2015,830000,37.709136,-122.465327,Outer Mission,6,SingleFamily,1976,94112
Address: 3092 Market Street,3,3,2115,12/10/2015,1880000,37.761083,-122.443454,Corona Heights,6,SingleFamily,2003,94114
Address: 2864 Sacramento Street,2,3,1768,12/10/2015,1510000,37.789343,-122.440047,Pacific Heights,8,SingleFamily,1900,94115
Address: 470 12th Avenue,1.5,2,1630,12/10/2015,1475000,37.779375,-122.470285,Inner Richmond,6,Condominium,1931,94118
Address: 3945 Clement Street,2.5,3,2209,12/10/2015,1699000,37.781101,-122.501742,Outer Richmond,6,SingleFamily,1930,94121
Address: 124 Noriega Street,2,3,1484,12/10/2015,1265000,37.754991,-122.465119,Inner Sunset,7,SingleFamily,1941,94122
Address: 495 Los Palmos Drive,1,3,1300,12/10/2015,1098000,37.73429,-122.452633,Westwood Highlands,7,SingleFamily,1947,94127
Address: 283 Bemis Street,3,4,2020,12/10/2015,2150000,37.735807,-122.43219,Glen Park,9,SingleFamily,1938,94131
Address: 530 Chestnut Street #407,2,2,1208,12/10/2015,1180000,37.804334,-122.41245,North Beach,5,Condominium,2001,94133
Address: 999 Green Street #905,1,1,986,12/10/2015,1275500,37.798451,-122.415218,Russian Hill,4,Condominium,1964,94133
Address: 75 Folsom Street #801,2,2,1287,12/9/2015,1548000,37.7898,-122.389765,South Beach,6,Condominium,1991,94105
Address: 184 London Street,1,3,750,12/9/2015,520000,37.726328,-122.432852,Excelsior,5,SingleFamily,1910,94112
Address: 16 Orizaba Avenue,6,6,4136,12/9/2015,1300000,37.709894,-122.46228,Outer Mission,15,SingleFamily,2010,94112
Address: 333 Presidio Avenue #4,1,1,770,12/9/2015,738000,37.788551,-122.447336,Presidio Heights,4,Condominium,1907,94115
Address: 2754 39th Avenue,2,3,1350,12/9/2015,985000,37.73549,-122.496329,Outer Parkside,4,SingleFamily,1948,94116
Address: 815 Laguna Honda Boulevard,1.5,2,1791,12/9/2015,1250000,37.743955,-122.456084,Forest Hill Extension,7,SingleFamily,1935,94127
Address: 135 Red Rock Way #311L,1,1,830,12/9/2015,605000,37.746221,-122.441966,Diamond Heights,3,Condominium,1972,94131
Address: 174 Victoria Street,1,3,984,12/9/2015,720000,37.713859,-122.465018,Ingleside Heights,5,SingleFamily,1940,94132
Address: 310 Townsend Street #311,1,1,853,12/8/2015,900000,37.777027,-122.395736,South of Market,4,Condominium,2006,94107
Address: 51 Mirabel Avenue,1,2,875,12/8/2015,1325000,37.746731,-122.416518,Bernal Heights,4,SingleFamily,1900,94110
Address: 134 Naples Street,1,2,1125,12/8/2015,647500,37.726623,-122.427192,Excelsior,5,SingleFamily,1925,94112
Address: 4475 24th Street #2,1,2,837,12/8/2015,839500,37.750616,-122.442268,Noe Valley,4,Condominium,1976,94114
Address: 6542 Fulton Street,1,2,994,12/8/2015,800000,37.771905,-122.502038,Outer Richmond,5,Condominium,1937,94121
Address: 3535 Clement Street,3,4,2500,12/8/2015,1830000,37.781184,-122.497425,Outer Richmond,8,SingleFamily,1919,94121
Address: 2660 Scott Street,8,7,9190,12/8/2015,13075000,37.794473,-122.439703,Pacific Heights,16,SingleFamily,1908,94123
Address: 250 Bayview Circle,2,2,1301,12/8/2015,765000,37.73449,-122.396289,Silver Terrace,4,SingleFamily,1986,94124
Address: 547 Campbell Avenue,1,3,1030,12/8/2015,600000,37.715323,-122.407298,Visitacion Valley,6,SingleFamily,1944,94134
Address: 200 Townsend Street #45,2,1,856,12/7/2015,875000,37.778904,-122.393325,South of Market,4,Condominium,2003,94107
Address: 3021 20th Street,2,1,1267,12/7/2015,1100000,37.758878,-122.411147,Mission,4,Condominium,1890,94110
Address: 101 Lombard Street #116E,1,1,1000,12/7/2015,800000,37.80347,-122.40409,Telegraph Hill,4,Condominium,1983,94111
Address: 2647 43rd Avenue,2,3,1232,12/7/2015,1050000,37.737279,-122.501408,Outer Parkside,7,SingleFamily,1948,94116
Address: 1475 37th Avenue,1.5,2,1713,12/7/2015,1137500,37.759458,-122.496532,Outer Sunset,6,SingleFamily,1937,94122
Address: 3038 Pierce Street,2,2,1150,12/7/2015,1150000,37.79814,-122.438775,Cow Hollow,5,Condominium,1906,94123
Address: 842 Monterey Boulevard,1.5,4,1368,12/7/2015,935000,37.731787,-122.454448,Westwood Highlands,7,SingleFamily,1925,94127
Address: 2020 Stockton Street,2,3,1786,12/7/2015,1900000,37.804563,-122.409793,Telegraph Hill,6,Condominium,1952,94133
Address: 412 Pioche Street,1,1,890,12/7/2015,710000,37.728074,-122.42273,Portola,4,SingleFamily,1942,94134
Address: 332 Gambier Street,1,3,1435,12/7/2015,950000,37.725141,-122.42147,Portola,7,SingleFamily,1910,94134
Address: 601 Van Ness Avenue #405,2,2,881,12/4/2015,825000,37.781386,-122.421406,Van Ness - Civic Center,4,Condominium,1982,94102
Address: 55 Page Street #415,1,1,750,12/4/2015,895000,37.773891,-122.421875,Van Ness - Civic Center,5,Condominium,2008,94102
Address: 140 South Van Ness Avenue #631,2,2,1075,12/4/2015,895000,37.771585,-122.418825,South of Market,5,Condominium,2002,94103
Address: 817 Carolina Street,1,3,1644,12/4/2015,1275000,37.758273,-122.399694,Potrero Hill,5,SingleFamily,1907,94107
Address: 1250 Jones Street #503,1,1,1250,12/4/2015,1405000,37.793071,-122.414049,Nob Hill,6,Condominium,1929,94109
Address: 725 Hampshire Street,1,2,1740,12/4/2015,1575000,37.759765,-122.407671,Mission,5,SingleFamily,1900,94110
Address: 948 Hampshire Street,1,0,1215,12/4/2015,3800000,37.756888,-122.407955,Mission,4,SingleFamily,1900,94110
Address: 924 Naples Street,1,3,1500,12/4/2015,795000,37.715138,-122.435856,Excelsior,6,SingleFamily,1919,94112
Address: 250 Concord Street,3,4,1574,12/4/2015,815000,37.710141,-122.442063,Crocker Amazon,7,SingleFamily,1959,94112
Address: 2299 Market Street #502,1,1,691,12/4/2015,915000,37.764138,-122.433001,Eureka Valley - Dolores Heights - Castro,3,Condominium,2013,94114
Address: 4365 23rd Street,2,3,1567,12/4/2015,2100000,37.752297,-122.440046,Noe Valley,6,SingleFamily,1939,94114
Address: 2075 Sutter Street #507,2,2,1084,12/4/2015,1315000,37.785647,-122.434462,Lower Pacific Heights,5,Condominium,1992,94115
Address: 2013 Buchanan Street,2,3,2100,12/4/2015,1994000,37.788841,-122.430713,Lower Pacific Heights,6,Mobile,1999,94115
Address: 350 Broderick Street #226,2,2,928,12/4/2015,1095000,37.773649,-122.43887,North Panhandle,5,Condominium,2007,94117
Address: 710 Masonic Avenue,1,2,1405,12/4/2015,1175000,37.774719,-122.445912,North Panhandle,6,Condominium,1914,94117
Address: 2730 Clement Street,2,4,3040,12/4/2015,1200000,37.782092,-122.488723,Central Richmond,12,MultiFamily2To4,1924,94121
Address: 1448 Oakdale Avenue,2,3,2066,12/4/2015,860000,37.733196,-122.38732,Bayview,7,SingleFamily,1910,94124
Address: 450 Teresita Boulevard,1,2,1464,12/4/2015,1090000,37.739963,-122.448495,Miraloma Park,6,SingleFamily,1939,94127
Address: 106 Circular Avenue,1,2,1064,12/4/2015,728000,37.731109,-122.438211,Sunnyside,5,SingleFamily,1941,94131
Address: 260 King Street #703,2,2,1286,12/3/2015,1275000,37.777191,-122.393394,South of Market,4,MultiFamily2To4,2004,94107
Address: 1170 Sacramento Street #9B,2,2,1961,12/3/2015,3800000,37.79293,-122.412195,Nob Hill,4,Condominium,1963,94108
Address: 2724 21st Street,3,3,1897,12/3/2015,550000,37.757795,-122.409332,Mission,6,SingleFamily,1900,94110
Address: 580 Prentiss Street,1,2,918,12/3/2015,950000,37.736075,-122.412513,Bernal Heights,5,SingleFamily,1951,94110
Address: 1146 Capitol Avenue,4,4,1717,12/16/2015,1006000,37.72271,-122.45889,Ingleside,8,SingleFamily,1922,94112
Address: 4677 18th Street,2,3,1718,12/3/2015,1566000,37.760155,-122.442855,Eureka Valley - Dolores Heights - Castro,5,Condominium,1905,94114
Address: 2270 9th Avenue,3.5,4,3548,12/3/2015,2150000,37.747082,-122.466367,Forest Hill,7,SingleFamily,1935,94116
Address: 1260 Haight Street #5,1,2,1082,12/3/2015,1050000,37.770785,-122.44309,Haight-Ashbury,4,SingleFamily,1928,94117
Address: 560 Haight Street #102,2,2,1034,12/3/2015,1175000,37.772335,-122.43137,Hayes Valley,5,Condominium,2001,94117
Address: 574 18th Avenue,1.5,3,2050,12/3/2015,1835000,37.777141,-122.476669,Central Richmond,8,SingleFamily,1916,94121
Address: 1618 38th Avenue,1,3,1775,12/3/2015,1200000,37.756672,-122.496738,Outer Sunset,6,SingleFamily,1941,94122
Address: 2651 15th Avenue,2,3,2057,12/3/2015,1500000,37.738534,-122.471369,Inner Parkside,5,SingleFamily,1948,94127
Address: 315 Arlington Street,1,2,1147,12/4/2015,1000000,37.736404,-122.427276,Glen Park,6,Condominium,1910,94131
Address: 6 Mint Plaza #601A,1,1,606,12/2/2015,840000,37.78308,-122.407541,South of Market,4,Condominium,1900,94103
Address: 1840 Washington Street #603,1,1,837,12/2/2015,1050000,37.793212,-122.423744,Pacific Heights,3,Condominium,2012,94109
Address: 79 Bradford Street,2,2,900,12/2/2015,875000,37.741748,-122.409262,Bernal Heights,4,SingleFamily,1933,94110
Address: 204 Anderson Street,2,2,1140,12/2/2015,1425500,37.74023,-122.415369,Bernal Heights,5,SingleFamily,1928,94110
Address: 3942 Folsom Street,2.5,3,860,12/2/2015,1800000,37.737742,-122.41361,Bernal Heights,5,SingleFamily,1908,94110
Address: 136 Seville Street,2,3,1257,12/2/2015,890000,37.71167,-122.436488,Crocker Amazon,6,SingleFamily,1921,94112
Address: 32 Yukon Street,1,2,1119,12/2/2015,1225000,37.759138,-122.442427,Eureka Valley - Dolores Heights - Castro,5,Condominium,1949,94114
Address: 3515 Washington Street,3,2,2760,12/2/2015,3800000,37.789217,-122.450906,Presidio Heights,8,SingleFamily,1941,94118
Address: 1755 11th Avenue,1.5,2,1250,12/2/2015,1002000,37.755442,-122.468189,Inner Sunset,5,SingleFamily,1924,94122
Address: 1863 32nd Avenue,2,2,1150,12/2/2015,1099000,37.752439,-122.490647,Central Sunset,5,SingleFamily,1941,94122
Address: 15 Teresita Boulevard #14,2,2,886,12/2/2015,691000,37.745036,-122.45174,Miraloma Park,4,Condominium,1990,94127
Address: 47 Colby Street,1,2,1655,12/3/2015,1038000,37.729916,-122.414496,Portola,6,SingleFamily,1937,94134
Address: 601 Van Ness Avenue #605,2,2,1072,12/1/2015,825000,37.781386,-122.421406,Van Ness - Civic Center,5,Condominium,1982,94102
Address: 1160 Mission Street #904,1,1,765,12/1/2015,790000,37.778705,-122.412635,South of Market,3,Condominium,2008,94103
Address: 250 King Street #410,1,1,822,12/1/2015,759000,37.777645,-122.39343,South of Market,3,Condominium,2004,94107
Address: 451 Kansas Street #448,2.5,2,1030,12/1/2015,1155000,37.764114,-122.402984,Potrero Hill,4,Townhouse,2007,94107
Address: 1177 California Street #304,1,1,645,12/1/2015,790000,37.791089,-122.413658,Downtown,3,Condominium,1977,94108
Address: 723 Taylor Street #501,1,1,677,12/2/2015,798000,37.789192,-122.412231,Downtown,3,Condominium,2010,94108
Address: 1 Daniel Burnham Court #1202,1,1,772,12/1/2015,795000,37.786755,-122.4225,Van Ness - Civic Center,3,Condominium,1988,94109
Address: 1355 Pacific Avenue #403,1,1,880,12/1/2015,1225000,37.795295,-122.417541,Nob Hill,4,Condominium,2010,94109
Address: 1051 Francisco Street,6,5,4650,12/1/2015,9708000,37.803239,-122.422458,Russian Hill,11,MultiFamily2To4,1953,94109
Address: 3660 Folsom Street,3,3,650,12/1/2015,1950000,37.740726,-122.413458,Bernal Heights,4,SingleFamily,1902,94110
Address: 4217 22nd Street,2,2,1913,12/1/2015,1800000,37.754011,-122.43917,Noe Valley,5,SingleFamily,1908,94114
Address: 4069 25th Street,1.5,5,1837,12/1/2015,4100000,37.749628,-122.430985,Noe Valley,8,SingleFamily,1905,94114
Address: 2015 Pine Street #A,1,1,708,12/1/2015,795000,37.788219,-122.429286,Lower Pacific Heights,3,Condominium,1900,94115
Address: 2223 27th Avenue,2,3,2378,12/1/2015,1600000,37.745903,-122.48482,Parkside,6,SingleFamily,1940,94116
Address: 365 Magellan Avenue,3.5,5,3094,12/1/2015,2350000,37.744952,-122.46311,Forest Hill,8,SingleFamily,1926,94116
Address: 978 Clayton Street,1,2,1585,12/1/2015,1800000,37.76421,-122.44703,Parnassus - Ashbury,5,Condominium,1924,94117
Address: 623 23rd Avenue,1,2,1085,12/1/2015,955000,37.775847,-122.482595,Central Richmond,5,SingleFamily,1920,94121
Address: 760 35th Avenue,5,8,3905,12/1/2015,1810000,37.774688,-122.494764,Outer Richmond,13,SingleFamily,1965,94121
Address: 55 Mangels Avenue,2,3,1480,12/1/2015,1450000,37.73288,-122.438822,Glen Park,5,SingleFamily,1957,94131
Address: 1015 Rhode Island Street,4,4,2381,11/30/2015,1995000,37.756469,-122.401462,Potrero Hill,9,SingleFamily,1938,94107
Address: 1268 Dolores Street,2,2,1850,11/30/2015,1438000,37.749056,-122.425024,Eureka Valley - Dolores Heights - Castro,5,Condominium,2012,94110
Address: 73 Carver Street,2,3,1325,11/30/2015,1525000,37.742053,-122.409855,Bernal Heights,5,SingleFamily,1951,94110
Address: 28 Raleigh Avenue,1,2,1000,11/30/2015,900000,37.727461,-122.442447,Mission Terrace,4,SingleFamily,1926,94112
Address: 34 Pope Street,2,5,2083,11/30/2015,920000,37.714288,-122.441638,Crocker Amazon,8,SingleFamily,1991,94112
Address: 2471 43rd Avenue,1,2,1275,11/30/2015,905000,37.740591,-122.501641,Outer Parkside,4,SingleFamily,1940,94116
Address: 2047 44th Avenue,1,2,1214,11/30/2015,1003000,37.748414,-122.503266,Outer Parkside,5,SingleFamily,1946,94116
Address: 2745 Ulloa Street,2.5,4,1303,11/30/2015,1180000,37.740517,-122.485872,Parkside,5,SingleFamily,1974,94116
Address: 120 Oshaughnessy Boulevard,1,3,1300,11/30/2015,990000,37.743896,-122.450674,Miraloma Park,6,SingleFamily,1952,94127
Address: 280 Dalewood Way,2.5,3,1941,11/30/2015,1275000,37.738566,-122.458678,Miraloma Park,6,SingleFamily,1966,94127
Address: 44 MacOndray Lane #2E,2,2,1165,11/30/2015,1295000,37.799474,-122.414835,Russian Hill,4,Condominium,1980,94133
Address: 267 Clipper Street,1,3,1310,11/30/2015,1725000,37.748821,-122.430969,Noe Valley,6,SingleFamily,1900,94114
Address: 631 Folsom Street #12B,2,2,1054,11/25/2015,1275000,37.784713,-122.396873,Yerba Buena,5,Condominium,2009,94107
Address: 1080 Sutter Street #1003,1,2,753,11/25/2015,770000,37.788066,-122.418065,Downtown,4,Condominium,2013,94109
Address: 1770 Pacific Avenue #103,2,2,1500,11/25/2015,1760000,37.794927,-122.424508,Pacific Heights,8,Condominium,1902,94109
Address: 268 Thrift Street,1,2,1000,11/25/2015,750000,37.717704,-122.461487,Oceanview,4,SingleFamily,1953,94112
Address: 70 Cotter Street,1,3,1290,11/25/2015,850000,37.728033,-122.434204,Mission Terrace,6,SingleFamily,1909,94112
Address: 1142 Prague Street,2,0,1770,11/25/2015,981000,37.71029,-122.43885,Crocker Amazon,7,SingleFamily,1946,94112
Address: 1264 Noe Street,1,2,1078,11/25/2015,1250000,37.748729,-122.431892,Noe Valley,6,Condominium,1910,94114
Address: 46 Presidio Avenue,4,4,2750,11/25/2015,3900000,37.79125,-122.447325,Pacific Heights,9,SingleFamily,1916,94115
Address: 2780 Broadway Street,6,5,6800,11/25/2015,17100000,37.79358,-122.442803,Pacific Heights,13,SingleFamily,1962,94115
Address: 2466 18th Avenue,1,2,1150,11/25/2015,1025000,37.74187,-122.474209,Inner Parkside,5,SingleFamily,1923,94116
Address: 326 29th Avenue,1,3,1675,11/25/2015,1500000,37.783151,-122.488922,Central Richmond,6,SingleFamily,1910,94121
Address: 215 Red Rock Way #306J,1,1,744,11/25/2015,599000,37.745639,-122.442432,Diamond Heights,3,Condominium,1972,94131
Address: 414 Shields Street,1,2,781,11/25/2015,835000,37.718115,-122.46656,Merced Heights,4,SingleFamily,1946,94132
Address: 451 Kansas Street #631,2,2,928,11/24/2015,1149000,37.76408,-122.403289,Potrero Hill,4,Condominium,2007,94107
Address: 1353 Green Street,2,2,1764,11/24/2015,2300000,37.797685,-122.421335,Russian Hill,5,Condominium,1941,94109
Address: 116 Eugenia Avenue,1,2,1075,11/24/2015,975000,37.741436,-122.42062,Bernal Heights,6,SingleFamily,1900,94110
Address: 10 Carmel Street,5.5,4,1960,11/24/2015,2377500,37.761104,-122.446788,Parnassus - Ashbury,6,Condominium,1915,94117
Address: 149 Seal Rock Drive,1,2,1275,11/24/2015,700000,37.780446,-122.508816,Outer Richmond,5,SingleFamily,1941,94121
Address: 1259 18th Avenue,3,3,2236,11/24/2015,1500000,37.764358,-122.476436,Inner Sunset,7,SingleFamily,1924,94122
Address: 1310 10th Avenue,3,3,1880,11/24/2015,1830000,37.763697,-122.467077,Inner Sunset,6,SingleFamily,1908,94122
Address: 447 Country Club Drive,1.75,3,1050,12/28/2015,928000,37.730962,-122.495345,Lakeshore,9,SingleFamily,1954,94132
Address: 1234 Howard Street #2B3,1,1,888,11/23/2015,960000,37.775993,-122.412506,South of Market,4,Condominium,2007,94103
Address: 956 South Van Ness Avenue,4,4,3500,11/23/2015,2674000,37.757832,-122.417139,Mission,13,SingleFamily,1872,94110
Address: 80 Danton Street,3,3,2000,11/23/2015,1610000,37.73108,-122.432626,Mission Terrace,12,SingleFamily,1906,94112
Address: 2921 Washington Street #5,1,1,1070,11/23/2015,1000000,37.790535,-122.441409,Pacific Heights,4,Condominium,1916,94115
Address: 1727 34th Avenue,2,3,1845,11/23/2015,1335000,37.754831,-122.492968,Central Sunset,6,SingleFamily,1940,94122
Address: 501 Junipero Serra Boulevard,2,4,2327,11/23/2015,1700000,37.728731,-122.471256,Ingleside Terrace,9,SingleFamily,1924,94127
Address: 130 Chilton Avenue,1,2,728,11/23/2015,1060000,37.73361,-122.437073,Glen Park,4,SingleFamily,1925,94131
Address: 681 Panorama Drive,2,3,1237,11/23/2015,1204000,37.753465,-122.452131,Midtown Terrace,6,SingleFamily,1957,94131
Address: 179 Topaz Way,4.5,4,3692,11/23/2015,2375000,37.74008,-122.437123,Diamond Heights,7,SingleFamily,1973,94131
Address: 59 Rodgers Street #B,1,1,800,11/20/2015,800000,37.77507,-122.408775,South of Market,2,Condominium,2000,94103
Address: 1488 Harrison Street #103,2,1,1102,11/20/2015,900000,37.770933,-122.412421,South of Market,6,Condominium,2001,94103
Address: 39 Boardman Place #101,1.5,1,1255,11/20/2015,905000,37.774794,-122.402799,South of Market,4,Condominium,1996,94103
Address: 260 King Street #769,1,1,748,11/20/2015,815000,37.777191,-122.393394,South of Market,4,Condominium,2004,94107
Address: 1895 Pacific Avenue #506,1,1,1165,11/20/2015,975000,37.794168,-122.426243,Pacific Heights,4,Condominium,1931,94109
Address: 38 Sadowa Street,2.5,3,1360,11/20/2015,720000,37.712576,-122.455284,Oceanview,5,SingleFamily,1910,94112
Address: 115 Sickles Avenue,1,3,1750,11/20/2015,765000,37.709197,-122.453677,Outer Mission,6,SingleFamily,1913,94112
Address: 305 Guttenberg Street,2.5,4,1655,11/20/2015,828000,37.709222,-122.442361,Crocker Amazon,7,SingleFamily,1964,94112
Address: 1874 San Jose Avenue,2,3,1771,11/20/2015,975000,37.727313,-122.441507,Mission Terrace,6,SingleFamily,1937,94112
Address: 152 Eureka Street,2,4,2280,11/20/2015,2400000,37.759797,-122.438496,Eureka Valley - Dolores Heights - Castro,7,SingleFamily,1932,94114
Address: 2514 40th Avenue,2,3,1490,11/20/2015,1020000,37.739858,-122.497704,Outer Parkside,5,SingleFamily,1945,94116
Address: 2279 47th Avenue,3,4,2570,11/20/2015,1030000,37.743999,-122.506182,Outer Parkside,8,SingleFamily,1900,94116
Address: 521 Magellan Avenue,1,2,1216,11/20/2015,1509000,37.744034,-122.466614,Forest Hill,5,SingleFamily,1920,94116
Address: 270 Ewing Terrace,1,2,1250,11/20/2015,1575000,37.779676,-122.449096,Lone Mountain,5,SingleFamily,1940,94118
Address: 591 29th Avenue,2.5,3,1800,11/20/2015,1750000,37.778174,-122.489141,Central Richmond,7,SingleFamily,1936,94121
Address: 1466 44th Avenue,1,2,1130,11/20/2015,892000,37.759294,-122.50337,Outer Sunset,5,SingleFamily,1926,94122
Address: 1422 42nd Avenue,1,3,1325,11/20/2015,1220000,37.760143,-122.501274,Outer Sunset,6,SingleFamily,1951,94122
Address: 1795 Green Street,2,3,1647,11/20/2015,2500000,37.79678,-122.428519,Pacific Heights,6,Condominium,1908,94123
Address: 52 Marne Avenue,2.5,4,1648,11/20/2015,1300000,37.739544,-122.459379,Miraloma Park,6,SingleFamily,1926,94127
Address: 80 Edgehill Way,4,4,3495,11/20/2015,2385000,37.742482,-122.460233,Forest Hill Extension,9,SingleFamily,1960,94127
Address: 277 Bemis Street,1,2,950,11/20/2015,1150000,37.73585,-122.432123,Glen Park,4,SingleFamily,1956,94131
Address: 404 Gold Mine Drive,3,4,2271,11/20/2015,1555000,37.739284,-122.438555,Diamond Heights,9,SingleFamily,1967,94131
Address: 3981 Alemany Boulevard #206,1,1,670,11/20/2015,515000,37.71048,-122.467645,Ingleside Heights,3,Condominium,2002,94132
Address: 101 Crescent Way #2102,2,2,1063,11/20/2015,488000,37.710918,-122.389238,Bayview,5,Condominium,2001,94134
Address: 155 Somerset Street,1,2,1550,11/20/2015,975000,37.72958,-122.408459,Portola,5,SingleFamily,1937,94134
Address: 262 Castro Street,2,2,848,11/20/2015,1700000,37.764602,-122.435716,Corona Heights,4,SingleFamily,1906,94114
Address: 1483 Sutter Street #1102,1,1,650,11/19/2015,690000,37.78675,-122.424235,Van Ness - Civic Center,3,Condominium,1993,94109
Address: 630 Precita Avenue,2,5,1675,11/19/2015,1083500,37.747591,-122.40874,Bernal Heights,8,SingleFamily,1905,94110
Address: 1573 34th Avenue,2,3,2400,11/19/2015,1625000,37.757766,-122.493171,Central Sunset,6,SingleFamily,1933,94122
Address: 315 Moraga Street,3,3,1942,11/19/2015,1667500,37.756514,-122.466064,Inner Sunset,8,Condominium,2012,94122
Address: 2091 Bancroft Avenue,3,4,2350,11/19/2015,860000,37.730545,-122.402057,Silver Terrace,8,SingleFamily,1992,94124
Address: 501 Beale Street #9H,2,2,1161,11/18/2015,1950100,37.786235,-122.389068,South Beach,4,Condominium,2006,94105
Address: 2600 18th Street #22,2,2,1662,11/18/2015,1250000,37.762136,-122.408479,Mission,5,Condominium,1999,94110
Address: 797 Athens Street,1,2,925,11/18/2015,570000,37.715461,-122.432755,Excelsior,4,SingleFamily,1908,94112
Address: 356 20th Avenue,3,4,2256,11/18/2015,1650000,37.781204,-122.479389,Central Richmond,8,Condominium,2010,94121
Address: 1459 31st Avenue,2,4,2281,11/18/2015,1290000,37.760017,-122.490103,Central Sunset,8,SingleFamily,1937,94122
Address: 1216 28th Avenue,2.5,5,2666,11/18/2015,2021500,37.764647,-122.486547,Central Sunset,8,SingleFamily,1924,94122
Address: 76 Jennings Court,2,3,1212,11/18/2015,575000,37.717061,-122.397018,Bayview,6,Condominium,1995,94124
Address: 656 Teresita Boulevard,2,3,1218,11/18/2015,1230000,37.736383,-122.446101,Miraloma Park,6,SingleFamily,1940,94127
Address: 5553 Diamond Heights Boulevard,2.5,3,1890,11/18/2015,1220000,37.738774,-122.43632,Glen Park,6,SingleFamily,1969,94131
Address: 147 Stillings Avenue,2,3,1700,11/18/2015,1300000,37.734342,-122.443147,Miraloma Park,5,SingleFamily,1942,94131
Address: 1070 Green Street #201,2,2,1465,11/18/2015,2900000,37.798792,-122.416797,Russian Hill,5,Condominium,1963,94133
Address: 380 10th Street #27,2,2,1305,11/17/2015,1150000,37.771683,-122.411809,South of Market,5,Condominium,2004,94103
Address: 2250 24th Street #223,1,2,839,11/17/2015,640000,37.753905,-122.40202,Potrero Hill,4,Condominium,1989,94107
Address: 3615 22nd Street,2.5,3,1519,11/17/2015,1475000,37.754704,-122.428164,Eureka Valley - Dolores Heights - Castro,7,Condominium,1911,94114
Address: 429 Liberty Street,2,2,1990,11/17/2015,2650000,37.756871,-122.430875,Eureka Valley - Dolores Heights - Castro,7,SingleFamily,1907,94114
Address: 22 22nd Avenue,1.5,2,2250,1/3/2013,1310000,37.784735,-122.481516,Lake,7,SingleFamily,1914,94121
Address: 1314 Palou Avenue,3,4,1275,11/17/2015,780000,37.731189,-122.385454,Bayview,5,SingleFamily,1941,94124
Address: 1635 Plymouth Avenue,3,4,2754,11/17/2015,1800000,37.731667,-122.457878,Westwood Highlands,7,SingleFamily,1925,94127
Address: 256 Glenview Drive,2,3,1213,11/17/2015,1192500,37.748056,-122.445877,Midtown Terrace,6,SingleFamily,1958,94131
Address: 125 Gilbert Street #17,1.5,1,1047,11/16/2015,875000,37.773223,-122.401916,South of Market,1,Condominium,1996,94103
Address: 301 Main Street #T23C,1,1,809,11/16/2015,1425000,37.789333,-122.391698,South Beach,3,Condominium,2008,94105
Address: 88 King Street #419,2,2,1115,11/16/2015,1250000,37.78063,-122.389635,South Beach,4,Condominium,2000,94107
Address: 177 Townsend Street #527,2,2,1019,11/16/2015,1300000,37.77898,-122.391754,South Beach,4,Condominium,2007,94107
Address: 260 King Street #1205,2,2,1488,11/16/2015,1475000,37.777191,-122.393394,South of Market,4,Condominium,2004,94107
Address: 1101 Green Street #303,1,2,1003,11/16/2015,1210000,37.798234,-122.417394,Russian Hill,4,Condominium,1930,94109
Address: 1257 Dolores Street #A,1,1,950,11/16/2015,860000,37.749335,-122.424491,Mission,5,Condominium,1910,94110
Address: 1912 Golden Gate Avenue,2,3,1154,11/16/2015,1775000,37.7785,-122.442563,North Panhandle,5,SingleFamily,1900,94115
Address: 2440 Bush Street #C,2.5,3,1810,11/16/2015,2000000,37.786788,-122.437531,Lower Pacific Heights,9,Condominium,1985,94115
Address: 2955 Pacific Avenue,2,3,2160,11/16/2015,3650000,37.7919,-122.443975,Pacific Heights,6,Condominium,1995,94115
Address: 472 12th Avenue,1,2,1508,11/16/2015,1250000,37.779371,-122.470275,Inner Richmond,6,Condominium,1931,94118
Address: 2341 Francisco Street,3,2,1500,11/16/2015,1575000,37.800533,-122.44374,Marina,5,Condominium,1927,94123
Address: 15 Scotia Avenue,2,3,1482,11/16/2015,868000,37.734337,-122.401708,Silver Terrace,5,SingleFamily,1936,94124
Address: 48 Dellbrook Avenue,1,2,1056,11/16/2015,850000,37.74992,-122.454366,Midtown Terrace,5,SingleFamily,1956,94131
Address: 288 Bemis Street,2,2,1263,11/16/2015,1450000,37.736136,-122.432406,Glen Park,6,SingleFamily,1908,94131
Address: 400 Head Street,1,2,1162,11/16/2015,700000,37.71444,-122.464169,Ingleside Heights,5,SingleFamily,1946,94132
Address: 1360 Montgomery Street #1,1,1,552,11/16/2015,720000,37.801802,-122.404269,Telegraph Hill,2,Condominium,1937,94133
Address: 1150 Bowdoin Street,1,3,924,11/16/2015,770000,37.72152,-122.409051,Portola,7,SingleFamily,1951,94134
Address: 300 Berry Street #1212,2,2,966,11/16/2015,1230000,37.773929,-122.39624,South of Market,5,Condominium,2009,94158
Address: 1839 15th Street #356,1,1,897,11/13/2015,853000,37.765474,-122.424915,Mission,3,Condominium,1983,94103
Address: 425 14th Street #4,2.5,2,1328,11/13/2015,1500000,37.767836,-122.422803,Mission,6,Condominium,2001,94103
Address: 2548 Hyde Street,1.5,3,1362,11/13/2015,1535000,37.804429,-122.420036,Russian Hill,6,Condominium,1908,94109
Address: 955 Excelsior Avenue,4,4,2134,11/13/2015,1150000,37.722655,-122.425573,Excelsior,7,SingleFamily,2005,94112
Address: 849 Sanchez Street,3.5,3,2935,11/13/2015,4100000,37.75572,-122.429819,Eureka Valley - Dolores Heights - Castro,9,SingleFamily,1938,94114
Address: 724 Masonic Avenue,1,1,420,2/28/2014,412000,37.774444,-122.445869,North Panhandle,2,Condominium,1912,94117
Address: 286 27th Avenue,1,2,1367,11/13/2015,950000,37.784078,-122.48693,Lake,5,Condominium,1924,94121
Address: 1351 10th Avenue,1,2,1152,11/13/2015,1665000,37.76301,-122.467642,Inner Sunset,5,SingleFamily,1940,94122
Address: 1027 Ingerson Avenue,2,3,1430,11/13/2015,375000,37.719206,-122.393725,Bayview,7,SingleFamily,1929,94124
Address: 1939 Quesada Avenue,1.5,2,875,11/13/2015,705000,37.735715,-122.396123,Silver Terrace,4,SingleFamily,1947,94124
Address: 112 Chenery Street,2,3,1235,11/13/2015,1680000,37.73954,-122.425828,Glen Park,5,SingleFamily,1927,94131
Address: 1533 Sutter Street,7.5,6,7375,11/12/2015,5530000,37.786658,-122.426481,Lower Pacific Heights,16,SingleFamily,1890,94109
Address: 819 Francisco Street,3.5,2,2040,11/12/2015,5600000,37.803728,-122.419055,Russian Hill,7,SingleFamily,1976,94109
Address: 979 Dolores Street,2,3,1405,11/12/2015,1875000,37.753745,-122.424926,Mission,7,Condominium,1907,94110
Address: 265 Minerva Street,1.5,2,967,11/12/2015,659000,37.715491,-122.461202,Oceanview,5,SingleFamily,1940,94112
Address: 886 30th Avenue,3,2,1990,11/12/2015,1380000,37.772625,-122.48928,Central Richmond,6,SingleFamily,1929,94121
Address: 255 Corona Street,3,3,3027,11/12/2015,2105000,37.726278,-122.467069,Ingleside Terrace,8,SingleFamily,1922,94127
Address: 135 Red Rock Way #112L,1,1,830,11/12/2015,685000,37.746221,-122.441968,Diamond Heights,3,Condominium,1972,94131
Address: 1907 Leavenworth Street #8,1,2,956,11/12/2015,908000,37.798645,-122.4175,Russian Hill,5,Condominium,1907,94133
Address: 8 Octavia Street,2,2,1001,3/13/2015,2599000,37.772548,-122.423362,Hayes Valley,5,Condominium,2014,94102
Address: 50 Lansing Street #313,1,1,789,11/10/2015,845000,37.786148,-122.394291,South Beach,4,Condominium,2006,94105
Address: 77 Dow Place #507,2,1,1075,11/10/2015,950000,37.784195,-122.396605,Yerba Buena,4,Condominium,2002,94107
Address: 250 King Street #746,2,2,1083,11/10/2015,1110000,37.777645,-122.39343,South of Market,4,Condominium,2004,94107
Address: 1950 Gough Street #405,1,1,950,11/10/2015,1095000,37.791558,-122.425677,Pacific Heights,4,Condominium,1926,94109
Address: 199 Tiffany Avenue #202,2,2,1118,11/10/2015,1190000,37.744274,-122.42134,Bernal Heights,5,Condominium,2004,94110
Address: 3709 25th Street,1,2,1160,11/10/2015,1375000,37.750214,-122.423153,Mission,5,SingleFamily,1925,94110
Address: 284 Howth Street,1,2,1280,11/10/2015,718000,37.719944,-122.451772,Ingleside,5,SingleFamily,1930,94112
Address: 456 Elizabeth Street,2,2,1410,11/10/2015,2250000,37.752523,-122.431083,Noe Valley,5,SingleFamily,1934,94114
Address: 168 Jersey Street,4.5,4,1140,11/10/2015,5700000,37.751043,-122.428983,Noe Valley,5,SingleFamily,1900,94114
Address: 131 Wilmot Street,1,2,828,11/10/2015,1271500,37.787245,-122.43483,Lower Pacific Heights,5,SingleFamily,1900,94115
Address: 1970 Scott Street #4,2,2,1386,11/10/2015,1461500,37.788019,-122.438498,Lower Pacific Heights,5,Condominium,1978,94115
Address: 706 Haight Street,2,2,1463,11/10/2015,1675000,37.771865,-122.43405,Hayes Valley,5,Condominium,1997,94117
Address: 1641 Green Street,4,4,2442,11/10/2015,4150000,37.797039,-122.426092,Pacific Heights,7,SingleFamily,1940,94123
Address: 1546 Innes Avenue,2,2,1629,11/10/2015,665000,37.739068,-122.387681,Bayview,7,SingleFamily,1938,94124
Address: 61 Pinehurst Way,3,5,2730,11/10/2015,1450000,37.727776,-122.4654,Mount Davidson Manor,9,SingleFamily,1928,94127
Address: 154 Yerba Buena Avenue,1.5,2,1700,11/10/2015,2050000,37.736032,-122.462007,St. Francis Wood,6,SingleFamily,1922,94127
Address: 397 Valley Street,1,2,931,11/10/2015,1125000,37.744121,-122.4309,Noe Valley,5,Condominium,1950,94131
Address: 1793 Sanchez Street,4,4,2110,11/10/2015,2257000,37.740271,-122.428447,Glen Park,8,SingleFamily,1900,94131
Address: 43 Everson Street,3.5,6,4305,11/10/2015,2350000,37.738321,-122.430068,Glen Park,10,SingleFamily,1965,94131
Address: 229 Brannan Street #9J,2,2,1412,11/9/2015,1850000,37.782575,-122.390364,South Beach,5,Condominium,2001,94107
Address: 715 Amazon Avenue,2.5,3,2146,11/9/2015,1300000,37.715135,-122.434045,Excelsior,8,SingleFamily,1922,94112
Address: 62 Havelock Street,4.5,4,3500,11/9/2015,1600000,37.727044,-122.442809,Mission Terrace,11,SingleFamily,1923,94112
Address: 2439 44th Avenue,1,2,962,11/9/2015,950000,37.741095,-122.502753,Outer Parkside,4,SingleFamily,1947,94116
Address: 640 Teresita Boulevard,2,3,1868,11/9/2015,1650000,37.736655,-122.446003,Miraloma Park,7,SingleFamily,1940,94127
Address: 14 Hearst Avenue,1,2,1260,11/9/2015,1175000,37.730982,-122.438814,Sunnyside,6,SingleFamily,1939,94131
Address: 8 Addison Street,2.5,3,1655,11/9/2015,1700000,37.738047,-122.429828,Glen Park,6,SingleFamily,1965,94131
Address: 750 2nd Street #801,2.5,2,1960,11/6/2015,2750000,37.780006,-122.390274,South Beach,5,Condominium,2012,94107
Address: 1177 California Street #1414,2.5,2,1399,11/6/2015,1400000,37.791089,-122.413658,Downtown,4,Mobile,1978,94108
Address: 15 Prospect Avenue,4,4,1925,11/6/2015,950000,37.745144,-122.417366,Bernal Heights,12,Duplex,1900,94110
Address: 3451 18th Street,1,3,1200,11/6/2015,1200000,37.761561,-122.420494,Mission,5,Condominium,1916,94110
Address: 3663 Folsom Street,4,3,1267,11/6/2015,2070000,37.740501,-122.413101,Bernal Heights,7,SingleFamily,1962,94110
Address: 139 Lobos Street,1,2,781,11/6/2015,495000,37.714666,-122.45725,Oceanview,4,SingleFamily,1946,94112
Address: 44 Holloway Avenue,1,2,878,11/18/2015,638500,37.722072,-122.453855,Ingleside,5,SingleFamily,1901,94112
Address: 1301 Waller Street #A,1,1,634,11/6/2015,710000,37.769058,-122.445228,Haight-Ashbury,2,Condominium,1908,94117
Address: 2915 Judah Street,1,2,800,11/6/2015,760000,37.760729,-122.493414,Central Sunset,4,SingleFamily,1944,94122
Address: 1491 Palou Avenue,2,3,1170,11/6/2015,830000,37.732604,-122.389021,Bayview,5,SingleFamily,1925,94124
Address: 926 Teresita Boulevard,1,3,1381,11/6/2015,1551000,37.734383,-122.446667,Miraloma Park,5,SingleFamily,1939,94127
Address: 231 Mangels Avenue,2,3,1354,11/10/2015,1400000,37.732878,-122.442869,Sunnyside,6,SingleFamily,1957,94131
Address: 650 2nd Street #304,1.5,1,1798,11/5/2015,1475000,37.78096,-122.391555,South Beach,2,Condominium,1996,94107
Address: 227 Precita Avenue,2,3,2250,11/5/2015,522000,37.747661,-122.415584,Bernal Heights,9,MultiFamily2To4,1924,94110
Address: 570 Lisbon Street,3,2,2253,11/5/2015,800000,37.719463,-122.435866,Excelsior,13,SingleFamily,1922,94112
Address: 2209 Pacific Avenue,8.5,5,5894,11/5/2015,9950000,37.793434,-122.431918,Pacific Heights,11,SingleFamily,1915,94115
Address: 2259 28th Avenue,1,3,2228,11/5/2015,1055000,37.745247,-122.485847,Parkside,8,SingleFamily,1939,94116
Address: 2287 16th Avenue,2,4,2230,11/5/2015,1250000,37.745324,-122.473123,Inner Parkside,8,SingleFamily,1926,94116
Address: 2829 Pierce Street,4,6,3766,11/5/2015,2750000,37.796168,-122.439036,Cow Hollow,12,MultiFamily2To4,1949,94123
Address: 172 Cervantes Boulevard,3.5,4,2500,11/5/2015,4250000,37.804874,-122.440202,Marina,8,SingleFamily,1926,94123
Address: 231 Molimo Drive,2,3,1060,11/5/2015,1010000,37.736611,-122.449969,Miraloma Park,5,SingleFamily,1952,94127
Address: 857 Colby Street,1,2,836,11/5/2015,450000,37.719891,-122.409904,Portola,4,SingleFamily,1951,94134
Address: 325 Berry Street #108,2.5,2,1247,11/5/2015,1351000,37.773387,-122.395759,South of Market,5,Condominium,2007,94158
Address: 1591 Jackson Street #305,1,1,668,11/4/2015,625000,37.793914,-122.421037,Nob Hill,3,Condominium,1986,94109
Address: 3635 20th Street,3,6,4000,11/4/2015,8125000,37.75821,-122.422029,Mission,10,SingleFamily,1900,94110
Address: 266 South Hill Boulevard,2,3,1592,11/4/2015,1135000,37.709243,-122.430315,Crocker Amazon,8,SingleFamily,1926,94112
Address: 1469 Clayton Street,2,3,1943,11/4/2015,1950000,37.758352,-122.445118,Twin Peaks,6,Condominium,2009,94114
Address: 2327 Bush Street,3.5,3,2082,11/4/2015,2410000,37.786709,-122.435622,Lower Pacific Heights,7,Condominium,1890,94115
Address: 151 7th Avenue,1,3,1199,11/4/2015,1200000,37.785644,-122.466018,Lake,5,Condominium,1908,94118
Address: 135 Locust Street,3.5,4,2150,11/4/2015,5410000,37.789745,-122.452704,Presidio Heights,8,SingleFamily,1906,94118
Address: 3826 Lawton Street,1,2,950,11/4/2015,910000,37.757009,-122.504075,Outer Sunset,5,SingleFamily,1947,94122
Address: 1844 Greenwich Street,3,3,2251,11/4/2015,2682000,37.799971,-122.430127,Cow Hollow,7,Condominium,1910,94123
Address: 233 Topeka Avenue,1,2,887,11/4/2015,720000,37.732938,-122.396855,Silver Terrace,4,SingleFamily,1927,94124
Address: 855 Barneveld Avenue,1,3,1339,11/4/2015,750000,37.732501,-122.406771,Portola,6,SingleFamily,1948,94134
Address: 425 1st Street #2106,2,2,1238,11/3/2015,1675000,37.786064,-122.392173,South Beach,4,Condominium,2008,94105
Address: 451 Kansas Street #378,1,1,700,11/3/2015,749000,37.76408,-122.403289,Potrero Hill,3,Condominium,2007,94107
Address: 247 Connecticut Street,1,2,958,11/3/2015,870000,37.76314,-122.39725,Potrero Hill,4,Condominium,1908,94107
Address: 1133 Wisconsin Street,1,2,793,11/3/2015,895000,37.75309,-122.398225,Potrero Hill,4,SingleFamily,1939,94107
Address: 278 Clara Street,2,3,1462,11/3/2015,1000000,37.778225,-122.404223,South of Market,5,SingleFamily,1916,94107
Address: 1810 Polk Street #1,1,1,778,11/3/2015,850000,37.793685,-122.420944,Nob Hill,3,Condominium,2006,94109
Address: 1950 Gough Street #304,1,1,1040,11/3/2015,1227000,37.791558,-122.425677,Pacific Heights,4,Condominium,1926,94109
Address: 1402 South Van Ness Avenue,3,3,1737,11/3/2015,1500000,37.750633,-122.416359,Mission,6,Condominium,1999,94110
Address: 749 Guerrero Street,1.5,4,1575,11/3/2015,1637500,37.759217,-122.423275,Mission,6,SingleFamily,1909,94110
Address: 102 Greenwood Avenue,1,3,1395,11/3/2015,1215000,37.728938,-122.455843,Westwood Park,7,SingleFamily,1920,94112
Address: 173 Hartford Street #A,1,2,1027,11/3/2015,981000,37.759752,-122.433532,Eureka Valley - Dolores Heights - Castro,5,Condominium,1900,94114
Address: 4318 17th Street #1,3,3,1720,11/3/2015,1388000,37.762344,-122.440974,Corona Heights,5,Condominium,1989,94114
Address: 246 Eureka Street,1.5,2,1764,11/3/2015,1800000,37.758272,-122.438354,Eureka Valley - Dolores Heights - Castro,6,SingleFamily,1905,94114
Address: 1001 Ashbury Street,5,4,3423,11/3/2015,3295000,37.764403,-122.446216,Parnassus - Ashbury,8,SingleFamily,1928,94117
Address: 29 Park Hill Avenue,4,5,3000,11/3/2015,4100000,37.767666,-122.438952,Buena Vista Park,10,SingleFamily,1927,94117
Address: 2286 Filbert Street,1.5,2,1160,11/3/2015,1225000,37.79804,-122.437085,Cow Hollow,6,Condominium,1905,94123
Address: 1456 Chestnut Street #2,2,3,1670,11/3/2015,2200000,37.802234,-122.42736,Marina,6,Condominium,2013,94123
Address: 3260 Baker Street,2,3,1856,11/3/2015,2800000,37.801279,-122.446321,Marina,6,SingleFamily,1954,94123
Address: 2869 Broderick Street,3,4,2670,11/3/2015,3300000,37.796796,-122.444179,Cow Hollow,8,SingleFamily,1910,94123
Address: 358 Ulloa Street,2,3,1047,11/3/2015,1205000,37.741867,-122.457902,Forest Hill Extension,4,SingleFamily,1956,94127
Address: 3840 Market Street #202,1.5,2,936,11/3/2015,830000,37.753095,-122.442945,Twin Peaks,4,Condominium,1979,94131
Address: 487 Princeton Street,1,2,1050,11/3/2015,775000,37.723829,-122.413818,Portola,4,SingleFamily,1949,94134
Address: 177 Townsend Street #427,2,2,1011,11/2/2015,1310000,37.77898,-122.391769,South Beach,4,Condominium,2007,94107
Address: 229 Brannan Street #8J,2,2,1412,11/2/2015,1810000,37.782575,-122.390364,South Beach,5,Condominium,2001,94107
Address: 2040 Franklin Street #506,1,0,791,11/2/2015,540000,37.793519,-122.424316,Pacific Heights,3,Condominium,1966,94109
Address: 2725 20th Street,1,2,665,11/2/2015,975000,37.759114,-122.408479,Mission,4,SingleFamily,1906,94110
Address: 124 Danvers Street,2,3,1865,11/2/2015,1680000,37.759861,-122.443374,Eureka Valley - Dolores Heights - Castro,5,SingleFamily,1935,94114
Address: 59 Mars Street,2,2,1600,11/2/2015,1800000,37.761217,-122.444406,Corona Heights,4,SingleFamily,1926,94114
Address: 1805 Fillmore Street #305,2,2,1129,11/2/2015,1125000,37.786253,-122.433645,Lower Pacific Heights,6,Condominium,1986,94115
Address: 1983 44th Avenue,1,2,1162,11/2/2015,950000,37.749669,-122.503271,Outer Parkside,5,SingleFamily,1947,94116
Address: 612 26th Avenue,1,2,1181,11/2/2015,1008000,37.777782,-122.485586,Central Richmond,6,Condominium,1923,94121
Address: 51 Molimo Drive,2,3,1194,11/2/2015,1250000,37.736387,-122.447011,Miraloma Park,6,SingleFamily,1952,94127
Address: 1315 Monterey Boulevard,2.5,4,3345,11/2/2015,2350000,37.730578,-122.46357,Mount Davidson Manor,10,SingleFamily,1928,94127
Address: 574 Dellbrook Avenue,2,3,1054,11/2/2015,1200000,37.756052,-122.453242,Midtown Terrace,5,SingleFamily,1958,94131
Address: 251 14th Street,1.5,3,1526,10/30/2015,1024000,37.768138,-122.418914,Mission,6,Condominium,1907,94103
Address: 48 Langton Street #2,3,2,1274,10/30/2015,1400000,37.776798,-122.409263,South of Market,7,Condominium,2009,94103
Address: 400 Beale Street #1504,1,1,832,10/30/2015,778000,37.78691,-122.390925,South Beach,4,Condominium,2002,94105
Address: 246 2nd Street #1408,1,1,670,10/30/2015,799000,37.78575,-122.397404,Yerba Buena,3,Condominium,2000,94105
Address: 81 Lansing Street #407,1,1,1085,10/30/2015,1140000,37.78565,-122.394039,South Beach,4,Condominium,1995,94105
Address: 1301 Indiana Street #404,2,3,1476,10/30/2015,1400000,37.754439,-122.390812,Central Waterfront - Dogpatch,5,Condominium,2012,94107
Address: 1 Daniel Burnham Court #904,1,1,745,10/30/2015,325000,37.786755,-122.4225,Van Ness - Civic Center,3,Condominium,1988,94109
Address: 128 Ripley Street #1,3,2,1553,10/30/2015,1250000,37.744025,-122.412246,Bernal Heights,6,Condominium,1981,94110
Address: 3310 19th Street #301,2.5,3,1490,10/30/2015,1510000,37.760504,-122.41732,Mission,9,Condominium,2002,94110
Address: 29 Oakwood Street #15,2,2,1261,10/30/2015,1540000,37.760635,-122.424362,Mission,6,Condominium,2008,94110
Address: 3278 21st Street,3,4,3220,10/30/2015,1550000,37.757133,-122.420647,Mission,11,MultiFamily2To4,1876,94110
Address: 222 Andover Street,3,3,1509,10/30/2015,1650000,37.740084,-122.416625,Bernal Heights,6,SingleFamily,1924,94110
Address: 2405 Folsom Street #4,3.5,3,1844,10/30/2015,1900000,37.758743,-122.414367,Mission,9,Condominium,2008,94110
Address: 2220 Cayuga Avenue,1,2,1375,10/30/2015,575000,37.710147,-122.45504,Outer Mission,5,SingleFamily,1929,94112
Address: 35 Rolph Street,1,2,1350,10/30/2015,920000,37.715623,-122.440734,Crocker Amazon,5,SingleFamily,1925,94112
Address: 19 Del Monte Street,1,3,1800,10/30/2015,960000,37.71607,-122.442897,Outer Mission,6,SingleFamily,1924,94112
Address: 406 Capistrano Avenue,1,2,1125,10/30/2015,1075000,37.725459,-122.439125,Mission Terrace,5,SingleFamily,1925,94112
Address: 221 Eureka Street,1,2,1214,10/30/2015,1150000,37.758687,-122.437755,Eureka Valley - Dolores Heights - Castro,5,Condominium,1908,94114
Address: 4146 22nd Street,1,2,1455,10/31/2015,1787500,37.754417,-122.438462,Eureka Valley - Dolores Heights - Castro,7,SingleFamily,1903,94114
Address: 2614 Buchanan Street #4,1,0,496,10/30/2015,435000,37.794315,-122.43125,Pacific Heights,2,Condominium,1900,94115
Address: 4736 17th Street,2,4,2250,10/30/2015,2600000,37.76197,-122.448508,Parnassus - Ashbury,6,SingleFamily,1911,94117
Address: 6444 Geary Boulevard,1,2,832,10/30/2015,777000,37.780196,-122.488721,Central Richmond,5,Condominium,2006,94121
Address: 4109 Kirkham Street,2,2,1240,10/30/2015,950000,37.758348,-122.504984,Outer Sunset,6,SingleFamily,1909,94122
Address: 1692 20th Avenue,3.5,3,2225,10/30/2015,1111000,37.756244,-122.477389,Central Sunset,7,SingleFamily,2001,94122
Address: 3024 Noriega Street,3,4,2075,10/30/2015,1188000,37.753626,-122.496274,Outer Sunset,8,SingleFamily,1947,94122
Address: 400 Avila Street #202,1,1,581,10/30/2015,825000,37.80504,-122.440515,Marina,3,Condominium,1991,94123
Address: 162 Beverly Street,3,4,1970,10/30/2015,1075000,37.719009,-122.471372,Merced Heights,9,SingleFamily,1956,94132
Address: 439 Lakeshore Drive,2,3,1431,10/30/2015,1300000,37.733268,-122.495037,Lakeshore,6,SingleFamily,1952,94132
Address: 1201 Brussels Street,1,2,956,10/30/2015,725000,37.717472,-122.401311,Visitacion Valley,4,SingleFamily,1959,94134
Address: 865 Dwight Street,1,2,837,10/30/2015,850000,37.721489,-122.410959,Portola,4,SingleFamily,1955,94134
Address: 235 Berry Street #105,2.5,2,1255,10/30/2015,1410000,37.774703,-122.394089,South of Market,5,Condominium,2007,94158
Address: 1635 California Street #44,2,2,915,10/29/2015,991000,37.790184,-122.421348,Van Ness - Civic Center,5,Condominium,2005,94109
Address: 74 Lynch Street,1,2,1040,10/29/2015,1100000,37.795881,-122.4179,Nob Hill,5,Condominium,1906,94109
Address: 27 Roscoe Street,2.5,3,1493,10/29/2015,1398000,37.734176,-122.41861,Bernal Heights,7,SingleFamily,1908,94110
Address: 47 Prospect Avenue,2,3,1660,10/29/2015,1510000,37.744197,-122.417977,Bernal Heights,6,SingleFamily,1917,94110
Address: 161 Bradford Street,2.5,3,2900,10/29/2015,1613000,37.740243,-122.409336,Bernal Heights,10,SingleFamily,2004,94110
Address: 311 Athens Street,1,2,875,10/29/2015,690000,37.722861,-122.427163,Excelsior,4,SingleFamily,1913,94112
Address: 40 Kittredge Terrace,2,3,2270,10/29/2015,2200000,37.777602,-122.450261,Lone Mountain,7,SingleFamily,1937,94118
Address: 2727 Union Street,3.5,4,3675,10/29/2015,6800000,37.795732,-122.444176,Cow Hollow,10,SingleFamily,1911,94123
Address: 151 Westmoorland Drive,1.5,2,1147,10/29/2015,1100000,37.731429,-122.490809,Lakeshore,5,SingleFamily,1951,94132
Address: 582 Chestnut Street,2,2,1050,10/29/2015,1050000,37.803983,-122.412944,North Beach,5,Condominium,1982,94133
Address: 3011 Van Ness Avenue,2,2,2131,10/28/2015,1635000,37.803388,-122.425391,Marina,5,Condominium,1927,94109
Address: 78 Gladys Street,1,3,1025,10/28/2015,1100000,37.739063,-122.423335,Bernal Heights,6,SingleFamily,1907,94110
Address: 275 Vienna Street,1,2,821,10/28/2015,670000,37.723854,-122.4275,Excelsior,5,SingleFamily,1910,94112
Address: 1149 Diamond Street,2,4,2916,10/28/2015,1650000,37.748117,-122.435722,Noe Valley,10,MultiFamily2To4,1953,94114
Address: 2578 32nd Avenue,1,4,1536,10/28/2015,880000,37.739137,-122.489058,Parkside,8,SingleFamily,1906,94116
Address: 39 Broderick Street,2,2,1324,10/28/2015,1325000,37.770648,-122.438888,Buena Vista Park,6,Condominium,1909,94117
Address: 759 40th Avenue,2,2,1800,10/28/2015,1400000,37.774447,-122.500777,Outer Richmond,7,SingleFamily,1923,94121
Address: 1751 45th Avenue,2,3,1770,10/28/2015,1200000,37.753897,-122.504725,Outer Sunset,8,SingleFamily,1945,94122
Address: 110 San Leandro Way,2.5,4,2565,10/28/2015,2500000,37.734424,-122.469045,St. Francis Wood,9,SingleFamily,1925,94127
Address: 555 4th Street #733,1,1,691,10/27/2015,845000,37.779422,-122.396712,South of Market,4,Condominium,2006,94107
Address: 21 Rutledge Street,2.5,3,1427,10/27/2015,1120000,37.745064,-122.406406,Bernal Heights,6,SingleFamily,2002,94110
Address: 1211 Dolores Street,2,3,1480,11/21/2013,1510000,37.74998,-122.42464,Mission,6,Condominium,1906,94110
Address: 370 Church Street #K,1.5,2,1200,10/27/2015,1105000,37.765062,-122.429077,Eureka Valley - Dolores Heights - Castro,5,Condominium,1981,94114
Address: 1966 48th Avenue,1,2,1150,10/27/2015,1045000,37.749779,-122.506999,Outer Parkside,6,SingleFamily,1925,94116
Address: 2055 35th Avenue,2,3,1450,10/27/2015,1200000,37.748703,-122.493615,Parkside,6,SingleFamily,1956,94116
Address: 3025 Broderick Street,2.5,3,1730,10/27/2015,2500000,37.798244,-122.44452,Cow Hollow,6,Condominium,1938,94123
Address: 216 Waterville Street,1,2,1175,10/27/2015,595000,37.732034,-122.402721,Silver Terrace,5,SingleFamily,1948,94124
Address: 680 Los Palmos Drive,2.5,3,1897,10/27/2015,1208000,37.735086,-122.457159,Westwood Highlands,7,SingleFamily,1949,94127
Address: 81 Pinehurst Way,3,4,2050,10/27/2015,1350000,37.728055,-122.465187,Mount Davidson Manor,8,SingleFamily,1927,94127
Address: 346 Duncan Street,3,4,3325,10/27/2015,3250000,37.74621,-122.428867,Noe Valley,9,SingleFamily,1900,94131
Address: 745 De Haro Street,2,2,2024,10/26/2015,2250000,37.760424,-122.400862,Potrero Hill,9,SingleFamily,1900,94107
Address: 242 San Jose Avenue,2,4,2460,10/26/2015,3800000,37.751288,-122.421941,Mission,10,SingleFamily,1916,94110
Address: 351 East Buena Vista Avenue #404E,1,1,690,10/26/2015,347500,37.766872,-122.43959,Buena Vista Park,3,Condominium,1987,94117
Address: 509 Central Avenue,1,2,1173,10/26/2015,1225000,37.774353,-122.444686,North Panhandle,5,Condominium,1914,94117
Address: 691 29th Avenue,1,3,1400,10/26/2015,1050000,37.776305,-122.489,Central Richmond,6,SingleFamily,1941,94121
Address: 1735 39th Avenue,1,2,1009,10/26/2015,950000,37.754463,-122.498312,Outer Sunset,5,SingleFamily,1943,94122
Address: 465 Marina Boulevard,5.5,6,5420,10/26/2015,8001000,37.805653,-122.441194,Marina,14,SingleFamily,1930,94123
Address: 44 Sequoia Way,1,2,1340,10/26/2015,1270000,37.739393,-122.448954,Miraloma Park,6,SingleFamily,1931,94127
Address: 1032 Junipero Serra Boulevard,2,3,1570,10/26/2015,1300000,37.719124,-122.472949,Lakeside,5,SingleFamily,1949,94132
Address: 601 Van Ness Avenue #147,1,0,594,10/23/2015,466000,37.781386,-122.421406,Van Ness - Civic Center,2,Condominium,1982,94102
Address: 451 Kansas Street #489,1,0,453,10/23/2015,640000,37.76408,-122.403289,Potrero Hill,2,Condominium,2007,94107
Address: 674 Douglass Street,3,5,2318,10/23/2015,1850000,37.75301,-122.438942,Noe Valley,6,SingleFamily,1912,94114
Address: 2921 Washington Street #6,1,1,1070,10/23/2015,1250000,37.790535,-122.441409,Pacific Heights,5,Condominium,1916,94115
Address: 1521 Baker Street,4,5,3528,10/23/2015,3500000,37.785516,-122.443595,Lower Pacific Heights,10,SingleFamily,1900,94115
Address: 2330 Sloat Boulevard,1,3,1350,10/23/2015,1010000,37.734889,-122.499439,Outer Parkside,6,SingleFamily,1948,94116
Address: 647 4th Avenue,1,2,1371,10/23/2015,1110000,37.776418,-122.462131,Inner Richmond,5,Condominium,1906,94118
Address: 615 15th Avenue,2,3,2385,10/23/2015,1500000,37.776432,-122.473928,Central Richmond,10,SingleFamily,1915,94118
Address: 2617 Cabrillo Street,1.25,2,1415,10/23/2015,1168000,37.774109,-122.486828,Central Richmond,5,SingleFamily,1948,94121
Address: 674 30th Avenue,2,3,2400,10/23/2015,1300000,37.776547,-122.489529,Central Richmond,7,SingleFamily,1929,94121
Address: 1826 26th Avenue,1.5,4,1382,10/23/2015,1020000,37.753369,-122.483607,Central Sunset,7,SingleFamily,1947,94122
Address: 2143 Bay Street,2,2,1714,10/23/2015,2100000,37.80168,-122.44224,Marina,5,Condominium,1928,94123
Address: 56 Orsi Circle,3,4,1626,10/23/2015,700000,37.728623,-122.397448,Bayview,7,SingleFamily,1997,94124
Address: 463 Ulloa Street,1,1,936,10/23/2015,1175000,37.740866,-122.45882,Forest Hill Extension,4,SingleFamily,1921,94127
Address: 101 Urbano Drive,3,3,2570,10/23/2015,1775000,37.725074,-122.464541,Ingleside Terrace,9,SingleFamily,1923,94127
Address: 211 Granville Way,3,4,2758,10/23/2015,2325000,37.742287,-122.462759,West Portal,5,SingleFamily,1923,94127
Address: 1863 Church Street,1,2,1400,10/23/2015,1468000,37.740605,-122.426402,Glen Park,5,Condominium,1927,94131
Address: 36 Meadowbrook Drive,3,4,2205,10/23/2015,1495000,37.733527,-122.484333,Lakeshore,11,SingleFamily,1941,94132
Address: 33 Vandewater Street #103,2,2,950,10/23/2015,1060000,37.805138,-122.412582,North Beach,4,Condominium,1981,94133
Address: 386 Oxford Street,1,2,985,10/23/2015,675000,37.725087,-122.419173,Portola,5,SingleFamily,1945,94134
Address: 32 Tioga Avenue,1,3,1068,10/23/2015,679000,37.716109,-122.40347,Visitacion Valley,4,SingleFamily,1953,94134
Address: 1120 Clay Street,2,4,1500,10/22/2015,1525000,37.793757,-122.411666,Nob Hill,7,Condominium,1908,94108
Address: 66 Cleary Court #502,2,2,1096,10/22/2015,840000,37.784298,-122.427058,Western Addition,5,Condominium,1963,94109
Address: 806 York Street,1,2,1047,10/22/2015,980000,37.759044,-122.408996,Mission,5,Condominium,1911,94110
Address: 126 Park Street,1,2,1070,10/22/2015,1300800,37.736403,-122.422771,Bernal Heights,6,SingleFamily,1940,94110
Address: 285 Paris Street,1,2,650,10/22/2015,1188000,37.724063,-122.43279,Excelsior,10,SingleFamily,1900,94112
Address: 2201 Sacramento Street #601,2,2,1498,10/22/2015,2000000,37.7902,-122.429285,Pacific Heights,5,Condominium,1928,94115
Address: 155 Central Avenue,2,3,1394,10/22/2015,1250500,37.771125,-122.444085,Haight-Ashbury,6,Condominium,1900,94117
Address: 131 Divisadero Street,2,2,1754,10/22/2015,1575000,37.76934,-122.43702,Buena Vista Park,5,Condominium,1995,94117
Address: 249 Rivoli Street,2,3,2200,10/22/2015,2651000,37.762031,-122.451553,Parnassus - Ashbury,6,SingleFamily,1936,94117
Address: 3991 Washington Street,3,3,1880,10/22/2015,2327500,37.788285,-122.45903,Presidio Heights,7,Condominium,1905,94118
Address: 1791 48th Avenue,1.5,3,1228,10/22/2015,810000,37.753072,-122.507778,Outer Sunset,5,SingleFamily,1952,94122
Address: 1566 27th Avenue,3.5,3,2050,10/22/2015,1320000,37.758228,-122.485022,Central Sunset,6,SingleFamily,1931,94122
Address: 1370 31st Avenue,2,3,1516,10/22/2015,1380000,37.761701,-122.489564,Central Sunset,6,SingleFamily,1935,94122
Address: 219 Hearst Avenue,1,2,1049,10/22/2015,1175000,37.730464,-122.442765,Sunnyside,4,SingleFamily,1900,94131
Address: 489 30th Street,1,2,975,10/22/2015,1250000,37.741635,-122.430662,Glen Park,5,SingleFamily,1900,94131
Address: 260 King Street #753,1,1,556,10/21/2015,612000,37.777191,-122.393394,South of Market,2,Condominium,2004,94107
Address: 88 King Street #307,2,2,1116,10/21/2015,1300000,37.780117,-122.389648,South Beach,4,Condominium,2000,94107
Address: 601 4th Street #321,1,1,1502,10/21/2015,1400000,37.778163,-122.395774,South of Market,4,Condominium,1916,94107
Address: 631 Folsom Street #7D,2,2,1230,10/21/2015,1458000,37.784713,-122.396873,Yerba Buena,5,Condominium,2009,94107
